[{"id":"tuzsa-688","title":"(688) PS REYES DE ARAGÓN 24 Líneas: 58","geometry":{"type":"Point","coordinates":[-0.9074206640377084,41.62738864012122]},"link":"http://www.urbanosdezaragoza.es/frm_esquemaparadatime.php?poste=688","icon":"http://www.zaragoza.es/contenidos/iconos/bus.png"},{"id":"tuzsa-687","title":"(687) PS REYES DE ARAGÓN / IES VIRGEN DEL PILAR Líneas: 58","geometry":{"type":"Point","coordinates":[-0.9068316456871557,41.625315415484344]},"link":"http://www.urbanosdezaragoza.es/frm_esquemaparadatime.php?poste=687","icon":"http://www.zaragoza.es/contenidos/iconos/bus.png"},{"id":"tuzsa-686","title":"(686) Ps INFANTES DE ESPAÑA 6 Líneas: 58","geometry":{"type":"Point","coordinates":[-0.9050913330133871,41.622144910787405]},"link":"http://www.urbanosdezaragoza.es/frm_esquemaparadatime.php?poste=686","icon":"http://www.zaragoza.es/contenidos/iconos/bus.png"},{"id":"tuzsa-685","title":"(685) Ps RENOVALES / PARQUE PRIMO DE RIVERA Líneas: 42, Ci2","geometry":{"type":"Point","coordinates":[-0.893061044268624,41.63501593900758]},"link":"http://www.urbanosdezaragoza.es/frm_esquemaparadatime.php?poste=685","icon":"http://www.zaragoza.es/contenidos/iconos/bus.png"},{"id":"tuzsa-684","title":"(684) PS RENOVALES 10 Líneas: Ci1, 42","geometry":{"type":"Point","coordinates":[-0.8934365841702587,41.635590237739315]},"link":"http://www.urbanosdezaragoza.es/frm_esquemaparadatime.php?poste=684","icon":"http://www.zaragoza.es/contenidos/iconos/bus.png"},{"id":"tuzsa-682","title":"(682) PS PAMPLONA 12 Líneas: N2, 22, 51, 34","geometry":{"type":"Point","coordinates":[-0.887168441590303,41.64922354888317]},"link":"http://www.urbanosdezaragoza.es/frm_esquemaparadatime.php?poste=682","icon":"http://www.zaragoza.es/contenidos/iconos/bus.png"},{"id":"tuzsa-681","title":"(681) PS PAMPLONA 1 / PZA PARAISO Líneas: N3, 34, 38, 33","geometry":{"type":"Point","coordinates":[-0.8866655944526302,41.648223583785665]},"link":"http://www.urbanosdezaragoza.es/frm_esquemaparadatime.php?poste=681","icon":"http://www.zaragoza.es/contenidos/iconos/bus.png"},{"id":"tuzsa-679","title":"(679) PS M. AGUSTÍN 67 Líneas: 23, 31, 21, 51","geometry":{"type":"Point","coordinates":[-0.8936479061099811,41.654845544217345]},"link":"http://www.urbanosdezaragoza.es/frm_esquemaparadatime.php?poste=679","icon":"http://www.zaragoza.es/contenidos/iconos/bus.png"},{"id":"tuzsa-678","title":"(678) PS M. AGUSTÍN 62 Líneas: 23","geometry":{"type":"Point","coordinates":[-0.8936490533827589,41.65560210799722]},"link":"http://www.urbanosdezaragoza.es/frm_esquemaparadatime.php?poste=678","icon":"http://www.zaragoza.es/contenidos/iconos/bus.png"},{"id":"tuzsa-676","title":"(676) PS M. AGUSTÍN 37 Líneas: 23, 22, 21, 51","geometry":{"type":"Point","coordinates":[-0.8909261028314555,41.65138663497053]},"link":"http://www.urbanosdezaragoza.es/frm_esquemaparadatime.php?poste=676","icon":"http://www.zaragoza.es/contenidos/iconos/bus.png"},{"id":"tuzsa-675","title":"(675) PS M. AGUSTÍN 26 Líneas: 21, 23, 22, 51","geometry":{"type":"Point","coordinates":[-0.8914013590279378,41.65205733876471]},"link":"http://www.urbanosdezaragoza.es/frm_esquemaparadatime.php?poste=675","icon":"http://www.zaragoza.es/contenidos/iconos/bus.png"},{"id":"tuzsa-674","title":"(674) PS M. AGUSTÍN 12 Líneas: 21, 23, 22, 51","geometry":{"type":"Point","coordinates":[-0.8893933765328299,41.65064696050993]},"link":"http://www.urbanosdezaragoza.es/frm_esquemaparadatime.php?poste=674","icon":"http://www.zaragoza.es/contenidos/iconos/bus.png"},{"id":"tuzsa-673","title":"(673) PS M. AGUSTÍN 9 / PTA. CARMEN Líneas: 21, 51","geometry":{"type":"Point","coordinates":[-0.8884011308058077,41.65002978729184]},"link":"http://www.urbanosdezaragoza.es/frm_esquemaparadatime.php?poste=673","icon":"http://www.zaragoza.es/contenidos/iconos/bus.png"},{"id":"tuzsa-672","title":"(672) INF ESPAÑA / FRENTE INSTITUTO Líneas: 58","geometry":{"type":"Point","coordinates":[-0.9070686717055719,41.6251351017413]},"link":"http://www.urbanosdezaragoza.es/frm_esquemaparadatime.php?poste=672","icon":"http://www.zaragoza.es/contenidos/iconos/bus.png"},{"id":"tuzsa-671","title":"(671) PS REYES DE ARAGÓN 14 Líneas: 58","geometry":{"type":"Point","coordinates":[-0.9050299019596606,41.622522063686766]},"link":"http://www.urbanosdezaragoza.es/frm_esquemaparadatime.php?poste=671","icon":"http://www.zaragoza.es/contenidos/iconos/bus.png"},{"id":"tuzsa-670","title":"(670) INFANTES DE ESPAÑA / VÍA IBÉRICA Líneas: 58","geometry":{"type":"Point","coordinates":[-0.9077221868504797,41.6270293700966]},"link":"http://www.urbanosdezaragoza.es/frm_esquemaparadatime.php?poste=670","icon":"http://www.zaragoza.es/contenidos/iconos/bus.png"},{"id":"tuzsa-669","title":"(669) PS PAMPLONA 4 Líneas: 33, 21, N6, N4, N3, 38","geometry":{"type":"Point","coordinates":[-0.8865840570968406,41.64833016063542]},"link":"http://www.urbanosdezaragoza.es/frm_esquemaparadatime.php?poste=669","icon":"http://www.zaragoza.es/contenidos/iconos/bus.png"},{"id":"tuzsa-666","title":"(666) INDEPENDENCIA 25 Líneas: 21, 38","geometry":{"type":"Point","coordinates":[-0.8827052335240095,41.650280742581785]},"link":"http://www.urbanosdezaragoza.es/frm_esquemaparadatime.php?poste=666","icon":"http://www.zaragoza.es/contenidos/iconos/bus.png"},{"id":"tuzsa-664","title":"(664) INDEPENDENCIA 24 Líneas: 21, 38","geometry":{"type":"Point","coordinates":[-0.8830182881788388,41.65019645022572]},"link":"http://www.urbanosdezaragoza.es/frm_esquemaparadatime.php?poste=664","icon":"http://www.zaragoza.es/contenidos/iconos/bus.png"},{"id":"tuzsa-660","title":"(660) Ps ECHEGARAY / PTE HIERRO Líneas: 22","geometry":{"type":"Point","coordinates":[-0.8707209640402117,41.6541482373156]},"link":"http://www.urbanosdezaragoza.es/frm_esquemaparadatime.php?poste=660","icon":"http://www.zaragoza.es/contenidos/iconos/bus.png"},{"id":"tuzsa-659","title":"(659) Ps ECHEGARAY / HOSPEDERÍA Líneas: 29","geometry":{"type":"Point","coordinates":[-0.879342725128687,41.657459967596004]},"link":"http://www.urbanosdezaragoza.es/frm_esquemaparadatime.php?poste=659","icon":"http://www.zaragoza.es/contenidos/iconos/bus.png"},{"id":"tuzsa-653","title":"(653) Ps ECHEGARAY / COLEGIO Líneas: N7, 36","geometry":{"type":"Point","coordinates":[-0.8851263255773821,41.65805290138491]},"link":"http://www.urbanosdezaragoza.es/frm_esquemaparadatime.php?poste=653","icon":"http://www.zaragoza.es/contenidos/iconos/bus.png"},{"id":"tuzsa-652","title":"(652) Ps ECHEGARAY / CELMA Líneas: N7, 36","geometry":{"type":"Point","coordinates":[-0.8894654614355724,41.65869105339217]},"link":"http://www.urbanosdezaragoza.es/frm_esquemaparadatime.php?poste=652","icon":"http://www.zaragoza.es/contenidos/iconos/bus.png"},{"id":"tuzsa-651","title":"(651) Ps ECHEGARAY / S. MINGUIJÓN Líneas: 24","geometry":{"type":"Point","coordinates":[-0.8601395207295712,41.65094796360683]},"link":"http://www.urbanosdezaragoza.es/frm_esquemaparadatime.php?poste=651","icon":"http://www.zaragoza.es/contenidos/iconos/bus.png"},{"id":"tuzsa-650","title":"(650) PS DUQUE DE ALBA / VELÓDROMO Líneas: 34","geometry":{"type":"Point","coordinates":[-0.8978731886879164,41.622706596410715]},"link":"http://www.urbanosdezaragoza.es/frm_esquemaparadatime.php?poste=650","icon":"http://www.zaragoza.es/contenidos/iconos/bus.png"},{"id":"tuzsa-649","title":"(649) PS DUQUE DE ALBA / VELÓDROMO Líneas: 34","geometry":{"type":"Point","coordinates":[-0.8979128572493645,41.622734342088485]},"link":"http://www.urbanosdezaragoza.es/frm_esquemaparadatime.php?poste=649","icon":"http://www.zaragoza.es/contenidos/iconos/bus.png"},{"id":"tuzsa-648","title":"(648) PS DUQUE DE ALBA / MONUMENTO A LA LEGIÓN Líneas: 34","geometry":{"type":"Point","coordinates":[-0.9003289262877181,41.62237325060615]},"link":"http://www.urbanosdezaragoza.es/frm_esquemaparadatime.php?poste=648","icon":"http://www.zaragoza.es/contenidos/iconos/bus.png"},{"id":"tuzsa-647","title":"(647) PS DUQUE DE ALBA / GLORIETA Líneas: 34","geometry":{"type":"Point","coordinates":[-0.9018336835595867,41.62014453247043]},"link":"http://www.urbanosdezaragoza.es/frm_esquemaparadatime.php?poste=647","icon":"http://www.zaragoza.es/contenidos/iconos/bus.png"},{"id":"tuzsa-646","title":"(646) PS DUQUE DE ALBA / CAMINO Líneas: 34","geometry":{"type":"Point","coordinates":[-0.8943835332859339,41.623115504500184]},"link":"http://www.urbanosdezaragoza.es/frm_esquemaparadatime.php?poste=646","icon":"http://www.zaragoza.es/contenidos/iconos/bus.png"},{"id":"tuzsa-645","title":"(645) ANDADOR DE PESCARA / P. VIDAL Líneas: 42","geometry":{"type":"Point","coordinates":[-0.8733084338945869,41.628977907754006]},"link":"http://www.urbanosdezaragoza.es/frm_esquemaparadatime.php?poste=645","icon":"http://www.zaragoza.es/contenidos/iconos/bus.png"},{"id":"tuzsa-644","title":"(644) PS DEL CANAL 47 Líneas: 23","geometry":{"type":"Point","coordinates":[-0.8803128898702174,41.63026015757637]},"link":"http://www.urbanosdezaragoza.es/frm_esquemaparadatime.php?poste=644","icon":"http://www.zaragoza.es/contenidos/iconos/bus.png"},{"id":"tuzsa-643","title":"(643) CTRA CASTELLÓN / ROTONDA VALMADRID Líneas: 25, N6","geometry":{"type":"Point","coordinates":[-0.8286507742452413,41.60578410898054]},"link":"http://www.urbanosdezaragoza.es/frm_esquemaparadatime.php?poste=643","icon":"http://www.zaragoza.es/contenidos/iconos/bus.png"},{"id":"tuzsa-642","title":"(642) PS PLÁTANOS 60 Líneas: 25, N6","geometry":{"type":"Point","coordinates":[-0.8236098148243396,41.60435121740205]},"link":"http://www.urbanosdezaragoza.es/frm_esquemaparadatime.php?poste=642","icon":"http://www.zaragoza.es/contenidos/iconos/bus.png"},{"id":"tuzsa-641","title":"(641) PS PLÁTANOS 10 Líneas: 25, N6","geometry":{"type":"Point","coordinates":[-0.8234896010449816,41.60626281555686]},"link":"http://www.urbanosdezaragoza.es/frm_esquemaparadatime.php?poste=641","icon":"http://www.zaragoza.es/contenidos/iconos/bus.png"},{"id":"tuzsa-640","title":"(640) PS CUÉLLAR / PARQUE PIGNATELLI Líneas: 31, 34, 33","geometry":{"type":"Point","coordinates":[-0.8855541430889636,41.63866526850265]},"link":"http://www.urbanosdezaragoza.es/frm_esquemaparadatime.php?poste=640","icon":"http://www.zaragoza.es/contenidos/iconos/bus.png"},{"id":"tuzsa-639","title":"(639) PS CUÉLLAR / LAPUYADE Líneas: 31, 34, 33","geometry":{"type":"Point","coordinates":[-0.8846179137046621,41.63654501198306]},"link":"http://www.urbanosdezaragoza.es/frm_esquemaparadatime.php?poste=639","icon":"http://www.zaragoza.es/contenidos/iconos/bus.png"},{"id":"tuzsa-638","title":"(638) PS CUÉLLAR / S. FERNANDO Líneas: 31, 33, N5, 39, 34","geometry":{"type":"Point","coordinates":[-0.8847214644817297,41.63464655191885]},"link":"http://www.urbanosdezaragoza.es/frm_esquemaparadatime.php?poste=638","icon":"http://www.zaragoza.es/contenidos/iconos/bus.png"},{"id":"tuzsa-637","title":"(637) PS CUÉLLAR 47 Líneas: 31, 33, N5, 34","geometry":{"type":"Point","coordinates":[-0.8845361826560059,41.636052653096954]},"link":"http://www.urbanosdezaragoza.es/frm_esquemaparadatime.php?poste=637","icon":"http://www.zaragoza.es/contenidos/iconos/bus.png"},{"id":"tuzsa-636","title":"(636) PS CUÉLLAR 29 Líneas: 31, 33, N5, 34","geometry":{"type":"Point","coordinates":[-0.8842967882515084,41.637831525487265]},"link":"http://www.urbanosdezaragoza.es/frm_esquemaparadatime.php?poste=636","icon":"http://www.zaragoza.es/contenidos/iconos/bus.png"},{"id":"tuzsa-635","title":"(635) Ps CUÉLLAR / IGLESIA SAN ANTONIO Líneas: 31, 34, 39, 33","geometry":{"type":"Point","coordinates":[-0.884906781616051,41.63436175804901]},"link":"http://www.urbanosdezaragoza.es/frm_esquemaparadatime.php?poste=635","icon":"http://www.zaragoza.es/contenidos/iconos/bus.png"},{"id":"tuzsa-634","title":"(634) PS CONSTITUCIÓN 33 Líneas: N6, 25, 32, 30, 51","geometry":{"type":"Point","coordinates":[-0.880214722328979,41.647609407741285]},"link":"http://www.urbanosdezaragoza.es/frm_esquemaparadatime.php?poste=634","icon":"http://www.zaragoza.es/contenidos/iconos/bus.png"},{"id":"tuzsa-633","title":"(633) PS CONSTITUCIÓN 16 Líneas: 40, 25, N6, 51","geometry":{"type":"Point","coordinates":[-0.8818026093074204,41.647778311450104]},"link":"http://www.urbanosdezaragoza.es/frm_esquemaparadatime.php?poste=633","icon":"http://www.zaragoza.es/contenidos/iconos/bus.png"},{"id":"tuzsa-632","title":"(632) PS CONSTITUCIÓN 11 Líneas: N6, 25, 32, 30, 51","geometry":{"type":"Point","coordinates":[-0.8837050877449257,41.64798451450307]},"link":"http://www.urbanosdezaragoza.es/frm_esquemaparadatime.php?poste=632","icon":"http://www.zaragoza.es/contenidos/iconos/bus.png"},{"id":"tuzsa-631","title":"(631) PS DE COLÓN 14 Líneas: 42","geometry":{"type":"Point","coordinates":[-0.8886095803247293,41.63377693167098]},"link":"http://www.urbanosdezaragoza.es/frm_esquemaparadatime.php?poste=631","icon":"http://www.zaragoza.es/contenidos/iconos/bus.png"},{"id":"tuzsa-630","title":"(630) PS DE COLÓN 2 Líneas: 42","geometry":{"type":"Point","coordinates":[-0.8856496013690569,41.63357836410788]},"link":"http://www.urbanosdezaragoza.es/frm_esquemaparadatime.php?poste=630","icon":"http://www.zaragoza.es/contenidos/iconos/bus.png"},{"id":"tuzsa-628","title":"(628) PS CALANDA 20 Líneas: 24","geometry":{"type":"Point","coordinates":[-0.9042327391925806,41.653012597518895]},"link":"http://www.urbanosdezaragoza.es/frm_esquemaparadatime.php?poste=628","icon":"http://www.zaragoza.es/contenidos/iconos/bus.png"},{"id":"tuzsa-627","title":"(627) PLEYADES / BERENCE Líneas: 36, 24","geometry":{"type":"Point","coordinates":[-0.9352612016610227,41.63963677527098]},"link":"http://www.urbanosdezaragoza.es/frm_esquemaparadatime.php?poste=627","icon":"http://www.zaragoza.es/contenidos/iconos/bus.png"},{"id":"tuzsa-626","title":"(626) CALLE VALLE DE OZA 5 Líneas: 50","geometry":{"type":"Point","coordinates":[-0.8753189451543307,41.664000810110174]},"link":"http://www.urbanosdezaragoza.es/frm_esquemaparadatime.php?poste=626","icon":"http://www.zaragoza.es/contenidos/iconos/bus.png"},{"id":"tuzsa-625","title":"(625) PEDRO PORTER 5 Líneas: 21, 53","geometry":{"type":"Point","coordinates":[-0.9267848945253973,41.65278233791017]},"link":"http://www.urbanosdezaragoza.es/frm_esquemaparadatime.php?poste=625","icon":"http://www.zaragoza.es/contenidos/iconos/bus.png"},{"id":"tuzsa-623","title":"(623) PEDRO III / IGLESIA SANTA MÓNICA Líneas: 42, 53, 35","geometry":{"type":"Point","coordinates":[-0.9052139721904483,41.6368907954696]},"link":"http://www.urbanosdezaragoza.es/frm_esquemaparadatime.php?poste=623","icon":"http://www.zaragoza.es/contenidos/iconos/bus.png"},{"id":"tuzsa-620","title":"(620) PASCUALA PERIE 2 Líneas: 39, N1","geometry":{"type":"Point","coordinates":[-0.8634415694954294,41.662398095655256]},"link":"http://www.urbanosdezaragoza.es/frm_esquemaparadatime.php?poste=620","icon":"http://www.zaragoza.es/contenidos/iconos/bus.png"},{"id":"tuzsa-619","title":"(619) SIGÜES / PARQUE Líneas: 33","geometry":{"type":"Point","coordinates":[-0.9129925156413935,41.64642619443794]},"link":"http://www.urbanosdezaragoza.es/frm_esquemaparadatime.php?poste=619","icon":"http://www.zaragoza.es/contenidos/iconos/bus.png"},{"id":"tuzsa-617","title":"(617) PARQUE ATRACCIONES Líneas: 34","geometry":{"type":"Point","coordinates":[-0.9002599496997308,41.622371989400754]},"link":"http://www.urbanosdezaragoza.es/frm_esquemaparadatime.php?poste=617","icon":"http://www.zaragoza.es/contenidos/iconos/bus.png"},{"id":"tuzsa-616","title":"(616) P. RUIZ PICASSO 35 Líneas: 50, 44","geometry":{"type":"Point","coordinates":[-0.8882542106645629,41.67298911655753]},"link":"http://www.urbanosdezaragoza.es/frm_esquemaparadatime.php?poste=616","icon":"http://www.zaragoza.es/contenidos/iconos/bus.png"},{"id":"tuzsa-615","title":"(615) P. RUIZ PICASSO 34 Líneas: 44, 5","geometry":{"type":"Point","coordinates":[-0.8881717546194631,41.67316322534278]},"link":"http://www.urbanosdezaragoza.es/frm_esquemaparadatime.php?poste=615","icon":"http://www.zaragoza.es/contenidos/iconos/bus.png"},{"id":"tuzsa-612","title":"(612) P. RUIZ PICASSO 5 Líneas: 50, 44","geometry":{"type":"Point","coordinates":[-0.8786969501888305,41.67293911059114]},"link":"http://www.urbanosdezaragoza.es/frm_esquemaparadatime.php?poste=612","icon":"http://www.zaragoza.es/contenidos/iconos/bus.png"},{"id":"tuzsa-611","title":"(611) P. RUIZ PICASSO 2 Líneas: 44, 5","geometry":{"type":"Point","coordinates":[-0.8781075740134906,41.673090335190864]},"link":"http://www.urbanosdezaragoza.es/frm_esquemaparadatime.php?poste=611","icon":"http://www.zaragoza.es/contenidos/iconos/bus.png"},{"id":"tuzsa-610","title":"(610) PABLO PARELLADA 27 Líneas: 31, C4, 23, N5","geometry":{"type":"Point","coordinates":[-0.8806840275075833,41.626826529253755]},"link":"http://www.urbanosdezaragoza.es/frm_esquemaparadatime.php?poste=610","icon":"http://www.zaragoza.es/contenidos/iconos/bus.png"},{"id":"tuzsa-609","title":"(609) OVIEDO 175-177 Líneas: 31, C4, 23, N5","geometry":{"type":"Point","coordinates":[-0.877928156333841,41.62566792648966]},"link":"http://www.urbanosdezaragoza.es/frm_esquemaparadatime.php?poste=609","icon":"http://www.zaragoza.es/contenidos/iconos/bus.png"},{"id":"tuzsa-608","title":"(608) NUMANCIA / MARIA BLASCO Líneas: 50","geometry":{"type":"Point","coordinates":[-0.85751934477569,41.66068918800904]},"link":"http://www.urbanosdezaragoza.es/frm_esquemaparadatime.php?poste=608","icon":"http://www.zaragoza.es/contenidos/iconos/bus.png"},{"id":"tuzsa-607","title":"(607) MONTE PERDIDO / MARÍA DOMÍNGUEZ REMÓN Líneas: 36","geometry":{"type":"Point","coordinates":[-0.8726997719113555,41.67315697206117]},"link":"http://www.urbanosdezaragoza.es/frm_esquemaparadatime.php?poste=607","icon":"http://www.zaragoza.es/contenidos/iconos/bus.png"},{"id":"tuzsa-606","title":"(606) MONTE PERDIDO / MARIA DOMÍNGUEZ REMÓN Líneas: 36","geometry":{"type":"Point","coordinates":[-0.8727979104159306,41.67314978397396]},"link":"http://www.urbanosdezaragoza.es/frm_esquemaparadatime.php?poste=606","icon":"http://www.zaragoza.es/contenidos/iconos/bus.png"},{"id":"tuzsa-605","title":"(605) MIGUEL SERVET 147 Líneas: 38","geometry":{"type":"Point","coordinates":[-0.8635565996821467,41.63648409173227]},"link":"http://www.urbanosdezaragoza.es/frm_esquemaparadatime.php?poste=605","icon":"http://www.zaragoza.es/contenidos/iconos/bus.png"},{"id":"tuzsa-604","title":"(604) NUESTRA SEÑORA DE LOS ÁNGELES Líneas: 38","geometry":{"type":"Point","coordinates":[-0.9166967195701161,41.643845455683234]},"link":"http://www.urbanosdezaragoza.es/frm_esquemaparadatime.php?poste=604","icon":"http://www.zaragoza.es/contenidos/iconos/bus.png"},{"id":"tuzsa-602","title":"(602) MIGUEL SERVET / BELCHITE Líneas: N6, L1, 38","geometry":{"type":"Point","coordinates":[-0.8674953597127404,41.64128119820471]},"link":"http://www.urbanosdezaragoza.es/frm_esquemaparadatime.php?poste=602","icon":"http://www.zaragoza.es/contenidos/iconos/bus.png"},{"id":"tuzsa-600","title":"(600) MIGUEL SERVET 204 Líneas: N6, 38","geometry":{"type":"Point","coordinates":[-0.8645965444299492,41.63764275373857]},"link":"http://www.urbanosdezaragoza.es/frm_esquemaparadatime.php?poste=600","icon":"http://www.zaragoza.es/contenidos/iconos/bus.png"},{"id":"tuzsa-599","title":"(599) MIGUEL SERVET 199 Líneas: N6, 25, 38","geometry":{"type":"Point","coordinates":[-0.8598200452922726,41.63273987203793]},"link":"http://www.urbanosdezaragoza.es/frm_esquemaparadatime.php?poste=599","icon":"http://www.zaragoza.es/contenidos/iconos/bus.png"},{"id":"tuzsa-594","title":"(594) MIGUEL SERVET 123 Líneas: 38","geometry":{"type":"Point","coordinates":[-0.8653854897823621,41.638819256698184]},"link":"http://www.urbanosdezaragoza.es/frm_esquemaparadatime.php?poste=594","icon":"http://www.zaragoza.es/contenidos/iconos/bus.png"},{"id":"tuzsa-593","title":"(593) MIGUEL SERVET 122 Líneas: N6, 38","geometry":{"type":"Point","coordinates":[-0.8684837171570172,41.64238473798473]},"link":"http://www.urbanosdezaragoza.es/frm_esquemaparadatime.php?poste=593","icon":"http://www.zaragoza.es/contenidos/iconos/bus.png"},{"id":"tuzsa-591","title":"(591) MIGUEL SERVET / FCO QUEVEDO Líneas: 38","geometry":{"type":"Point","coordinates":[-0.8670087917383864,41.64079932154467]},"link":"http://www.urbanosdezaragoza.es/frm_esquemaparadatime.php?poste=591","icon":"http://www.zaragoza.es/contenidos/iconos/bus.png"},{"id":"tuzsa-590","title":"(590) MIGUEL SERVET 86 Líneas: N6, 38","geometry":{"type":"Point","coordinates":[-0.8701827379350019,41.644280601998815]},"link":"http://www.urbanosdezaragoza.es/frm_esquemaparadatime.php?poste=590","icon":"http://www.zaragoza.es/contenidos/iconos/bus.png"},{"id":"tuzsa-589","title":"(589) MIGUEL SERVET 61 Líneas: 38","geometry":{"type":"Point","coordinates":[-0.8691882254965939,41.64323091135481]},"link":"http://www.urbanosdezaragoza.es/frm_esquemaparadatime.php?poste=589","icon":"http://www.zaragoza.es/contenidos/iconos/bus.png"},{"id":"tuzsa-588","title":"(588) MIGUEL SERVET 60 Líneas: N6, 38","geometry":{"type":"Point","coordinates":[-0.8717169905832127,41.64567352846621]},"link":"http://www.urbanosdezaragoza.es/frm_esquemaparadatime.php?poste=588","icon":"http://www.zaragoza.es/contenidos/iconos/bus.png"},{"id":"tuzsa-587","title":"(587) MIGUEL SERVET 57 Líneas: 38","geometry":{"type":"Point","coordinates":[-0.8706489622384138,41.644780100858476]},"link":"http://www.urbanosdezaragoza.es/frm_esquemaparadatime.php?poste=587","icon":"http://www.zaragoza.es/contenidos/iconos/bus.png"},{"id":"tuzsa-586","title":"(586) MIGUEL SERVET 37 Líneas: 38","geometry":{"type":"Point","coordinates":[-0.8718264096089652,41.64585118246746]},"link":"http://www.urbanosdezaragoza.es/frm_esquemaparadatime.php?poste=586","icon":"http://www.zaragoza.es/contenidos/iconos/bus.png"},{"id":"tuzsa-585","title":"(585) MIGUEL SERVET 28 Líneas: 40, 39, 38, 29","geometry":{"type":"Point","coordinates":[-0.8742693956089934,41.64753110781442]},"link":"http://www.urbanosdezaragoza.es/frm_esquemaparadatime.php?poste=585","icon":"http://www.zaragoza.es/contenidos/iconos/bus.png"},{"id":"tuzsa-584","title":"(584) MIGUEL SERVET 13 Líneas: 40, 39, 38","geometry":{"type":"Point","coordinates":[-0.8741375394029908,41.647524163439876]},"link":"http://www.urbanosdezaragoza.es/frm_esquemaparadatime.php?poste=584","icon":"http://www.zaragoza.es/contenidos/iconos/bus.png"},{"id":"tuzsa-583","title":"(583) MELILLA / E. SALAS Líneas: 40","geometry":{"type":"Point","coordinates":[-0.8768251886782794,41.632794184557845]},"link":"http://www.urbanosdezaragoza.es/frm_esquemaparadatime.php?poste=583","icon":"http://www.zaragoza.es/contenidos/iconos/bus.png"},{"id":"tuzsa-582","title":"(582) MELILLA / J. SOROLLA Líneas: 40","geometry":{"type":"Point","coordinates":[-0.8783284520679936,41.633628049692724]},"link":"http://www.urbanosdezaragoza.es/frm_esquemaparadatime.php?poste=582","icon":"http://www.zaragoza.es/contenidos/iconos/bus.png"},{"id":"tuzsa-581","title":"(581) MARQUÉS DE LA CADENA / PUENTE Líneas: Ci2, 44","geometry":{"type":"Point","coordinates":[-0.8609788518334685,41.65459770194704]},"link":"http://www.urbanosdezaragoza.es/frm_esquemaparadatime.php?poste=581","icon":"http://www.zaragoza.es/contenidos/iconos/bus.png"},{"id":"tuzsa-580","title":"(580) MARQUÉS DE LA CADENA S / N Líneas: Ci2","geometry":{"type":"Point","coordinates":[-0.8655606969223086,41.66291034766028]},"link":"http://www.urbanosdezaragoza.es/frm_esquemaparadatime.php?poste=580","icon":"http://www.zaragoza.es/contenidos/iconos/bus.png"},{"id":"tuzsa-576","title":"(576) MARQUÉS DE LA CADENA 57 / PLZ MOZART Líneas: Ci1","geometry":{"type":"Point","coordinates":[-0.8657543840059936,41.66286441279406]},"link":"http://www.urbanosdezaragoza.es/frm_esquemaparadatime.php?poste=576","icon":"http://www.zaragoza.es/contenidos/iconos/bus.png"},{"id":"tuzsa-575","title":"(575) MARIANO BASELGA 11 Líneas: 36","geometry":{"type":"Point","coordinates":[-0.8777823742064431,41.66116430911355]},"link":"http://www.urbanosdezaragoza.es/frm_esquemaparadatime.php?poste=575","icon":"http://www.zaragoza.es/contenidos/iconos/bus.png"},{"id":"tuzsa-574","title":"(574) MARIANO BARBASÍN 13 Líneas: 24","geometry":{"type":"Point","coordinates":[-0.8912009586688707,41.64200234711844]},"link":"http://www.urbanosdezaragoza.es/frm_esquemaparadatime.php?poste=574","icon":"http://www.zaragoza.es/contenidos/iconos/bus.png"},{"id":"tuzsa-565","title":"(565) M. ZAMBRANO 48 Líneas: 43, N2, 44","geometry":{"type":"Point","coordinates":[-0.8893853221794195,41.67502735655685]},"link":"http://www.urbanosdezaragoza.es/frm_esquemaparadatime.php?poste=565","icon":"http://www.zaragoza.es/contenidos/iconos/bus.png"},{"id":"tuzsa-561","title":"(561) M ZAMBRANO / PABLO NERUDA Líneas: 43, Ci2, 50, N2","geometry":{"type":"Point","coordinates":[-0.8886543489009688,41.66931284340201]},"link":"http://www.urbanosdezaragoza.es/frm_esquemaparadatime.php?poste=561","icon":"http://www.zaragoza.es/contenidos/iconos/bus.png"},{"id":"tuzsa-560","title":"(560) MANUEL LASALA 44 Líneas: 42, Ci2","geometry":{"type":"Point","coordinates":[-0.8972098906778343,41.637528244506434]},"link":"http://www.urbanosdezaragoza.es/frm_esquemaparadatime.php?poste=560","icon":"http://www.zaragoza.es/contenidos/iconos/bus.png"},{"id":"tuzsa-559","title":"(559) MANUEL DE FALLA 4 Líneas: 32","geometry":{"type":"Point","coordinates":[-0.9193360061847234,41.65531362128518]},"link":"http://www.urbanosdezaragoza.es/frm_esquemaparadatime.php?poste=559","icon":"http://www.zaragoza.es/contenidos/iconos/bus.png"},{"id":"tuzsa-558","title":"(558) LUIS VIVES 9 Líneas: Ci1, 42","geometry":{"type":"Point","coordinates":[-0.8958169058262606,41.63840787883606]},"link":"http://www.urbanosdezaragoza.es/frm_esquemaparadatime.php?poste=558","icon":"http://www.zaragoza.es/contenidos/iconos/bus.png"},{"id":"tuzsa-556","title":"(556) LUGO 134 Líneas: 42, 31","geometry":{"type":"Point","coordinates":[-0.8801745414749531,41.626384813645416]},"link":"http://www.urbanosdezaragoza.es/frm_esquemaparadatime.php?poste=556","icon":"http://www.zaragoza.es/contenidos/iconos/bus.png"},{"id":"tuzsa-555","title":"(555) L. GRACIA / ROTONDA JUSLIBOL Líneas: 43, N2","geometry":{"type":"Point","coordinates":[-0.889287830613576,41.686918545671446]},"link":"http://www.urbanosdezaragoza.es/frm_esquemaparadatime.php?poste=555","icon":"http://www.zaragoza.es/contenidos/iconos/bus.png"},{"id":"tuzsa-554","title":"(554) LUCIANO GRACIA/ROTONDA JUSLIBOL Líneas: 43","geometry":{"type":"Point","coordinates":[-0.8898808357647437,41.68660071246163]},"link":"http://www.urbanosdezaragoza.es/frm_esquemaparadatime.php?poste=554","icon":"http://www.zaragoza.es/contenidos/iconos/bus.png"},{"id":"tuzsa-552","title":"(552) L. GRACIA / ESCUELA INGENIEROS Líneas: 43","geometry":{"type":"Point","coordinates":[-0.88997535371895,41.68217129168147]},"link":"http://www.urbanosdezaragoza.es/frm_esquemaparadatime.php?poste=552","icon":"http://www.zaragoza.es/contenidos/iconos/bus.png"},{"id":"tuzsa-551","title":"(551) LÓPEZ DE LUNA 13 Líneas: 38","geometry":{"type":"Point","coordinates":[-0.9028132507474496,41.64570494411758]},"link":"http://www.urbanosdezaragoza.es/frm_esquemaparadatime.php?poste=551","icon":"http://www.zaragoza.es/contenidos/iconos/bus.png"},{"id":"tuzsa-550","title":"(550) LASIERRA PURROY 104 Líneas: 42, 31, C4","geometry":{"type":"Point","coordinates":[-0.8833632086898432,41.62693898959053]},"link":"http://www.urbanosdezaragoza.es/frm_esquemaparadatime.php?poste=550","icon":"http://www.zaragoza.es/contenidos/iconos/bus.png"},{"id":"tuzsa-549","title":"(549) LAPUYADE 43 Líneas: 39","geometry":{"type":"Point","coordinates":[-0.8813611805009883,41.63471969980235]},"link":"http://www.urbanosdezaragoza.es/frm_esquemaparadatime.php?poste=549","icon":"http://www.zaragoza.es/contenidos/iconos/bus.png"},{"id":"tuzsa-548","title":"(548) LAPUYADE 3 Líneas: 39","geometry":{"type":"Point","coordinates":[-0.8841308708485996,41.63618478584183]},"link":"http://www.urbanosdezaragoza.es/frm_esquemaparadatime.php?poste=548","icon":"http://www.zaragoza.es/contenidos/iconos/bus.png"},{"id":"tuzsa-547","title":"(547) PTA SANCHO 8 Líneas: 42","geometry":{"type":"Point","coordinates":[-0.9027132303496623,41.659685753267894]},"link":"http://www.urbanosdezaragoza.es/frm_esquemaparadatime.php?poste=547","icon":"http://www.zaragoza.es/contenidos/iconos/bus.png"},{"id":"tuzsa-546","title":"(546) AV PEÑAFLOR / TERMINAL Líneas: N7, 28","geometry":{"type":"Point","coordinates":[-0.7948711654123061,41.76240125308874]},"link":"http://www.urbanosdezaragoza.es/frm_esquemaparadatime.php?poste=546","icon":"http://www.zaragoza.es/contenidos/iconos/bus.png"},{"id":"tuzsa-545","title":"(545) LA SALUD/SAN VIATOR Líneas: 42","geometry":{"type":"Point","coordinates":[-0.8754859523072157,41.627149369222394]},"link":"http://www.urbanosdezaragoza.es/frm_esquemaparadatime.php?poste=545","icon":"http://www.zaragoza.es/contenidos/iconos/bus.png"},{"id":"tuzsa-544","title":"(544) J. PABLO II / JARDINES Líneas: N4, 53","geometry":{"type":"Point","coordinates":[-0.9103793564563142,41.64101530968482]},"link":"http://www.urbanosdezaragoza.es/frm_esquemaparadatime.php?poste=544","icon":"http://www.zaragoza.es/contenidos/iconos/bus.png"},{"id":"tuzsa-543","title":"(543) J. PABLO II 60 Líneas: N4, 42, 53, 35","geometry":{"type":"Point","coordinates":[-0.9083524157877497,41.637925208199626]},"link":"http://www.urbanosdezaragoza.es/frm_esquemaparadatime.php?poste=543","icon":"http://www.zaragoza.es/contenidos/iconos/bus.png"},{"id":"tuzsa-542","title":"(542) J. P. BONET 23 Líneas: 24","geometry":{"type":"Point","coordinates":[-0.8886642153225506,41.640505778568745]},"link":"http://www.urbanosdezaragoza.es/frm_esquemaparadatime.php?poste=542","icon":"http://www.zaragoza.es/contenidos/iconos/bus.png"},{"id":"tuzsa-541","title":"(541) J. P. BONET 20 Líneas: 24","geometry":{"type":"Point","coordinates":[-0.8887385342853932,41.640619726034025]},"link":"http://www.urbanosdezaragoza.es/frm_esquemaparadatime.php?poste=541","icon":"http://www.zaragoza.es/contenidos/iconos/bus.png"},{"id":"tuzsa-539","title":"(539) J. CIERVA 29 Líneas: N7, 44","geometry":{"type":"Point","coordinates":[-0.8617942260297523,41.671653051554195]},"link":"http://www.urbanosdezaragoza.es/frm_esquemaparadatime.php?poste=539","icon":"http://www.zaragoza.es/contenidos/iconos/bus.png"},{"id":"tuzsa-538","title":"(538) J. CIERVA 9 Líneas: N7, 44","geometry":{"type":"Point","coordinates":[-0.8593155898191366,41.66673898436707]},"link":"http://www.urbanosdezaragoza.es/frm_esquemaparadatime.php?poste=538","icon":"http://www.zaragoza.es/contenidos/iconos/bus.png"},{"id":"tuzsa-537","title":"(537) JUAN CARLOS I / JARDINES TAIFA Líneas: 53","geometry":{"type":"Point","coordinates":[-0.9079914432477147,41.6391885486763]},"link":"http://www.urbanosdezaragoza.es/frm_esquemaparadatime.php?poste=537","icon":"http://www.zaragoza.es/contenidos/iconos/bus.png"},{"id":"tuzsa-534","title":"(534) PTA SANCHO 3 Líneas: 42","geometry":{"type":"Point","coordinates":[-0.9029868178344651,41.65960068573845]},"link":"http://www.urbanosdezaragoza.es/frm_esquemaparadatime.php?poste=534","icon":"http://www.zaragoza.es/contenidos/iconos/bus.png"},{"id":"tuzsa-532","title":"(532) J. COCCI 21 Líneas: 22, 3","geometry":{"type":"Point","coordinates":[-0.8691638770973688,41.64659437164434]},"link":"http://www.urbanosdezaragoza.es/frm_esquemaparadatime.php?poste=532","icon":"http://www.zaragoza.es/contenidos/iconos/bus.png"},{"id":"tuzsa-530","title":"(530) JOAQUIN SOROLLA / PARQUE MEMORIA Líneas: 40","geometry":{"type":"Point","coordinates":[-0.8786640802532473,41.63331452045643]},"link":"http://www.urbanosdezaragoza.es/frm_esquemaparadatime.php?poste=530","icon":"http://www.zaragoza.es/contenidos/iconos/bus.png"},{"id":"tuzsa-529","title":"(529) JESUS Y MARÍA 89 Líneas: 29, 5","geometry":{"type":"Point","coordinates":[-0.864508987380075,41.693066859293445]},"link":"http://www.urbanosdezaragoza.es/frm_esquemaparadatime.php?poste=529","icon":"http://www.zaragoza.es/contenidos/iconos/bus.png"},{"id":"tuzsa-528","title":"(528) JESUS Y MARÍA 62 Líneas: 29, 5","geometry":{"type":"Point","coordinates":[-0.8660875778722373,41.69367262153994]},"link":"http://www.urbanosdezaragoza.es/frm_esquemaparadatime.php?poste=528","icon":"http://www.zaragoza.es/contenidos/iconos/bus.png"},{"id":"tuzsa-527","title":"(527) JESUS Y MARÍA 15 Líneas: N7, 29","geometry":{"type":"Point","coordinates":[-0.8687479777576039,41.694789208870176]},"link":"http://www.urbanosdezaragoza.es/frm_esquemaparadatime.php?poste=527","icon":"http://www.zaragoza.es/contenidos/iconos/bus.png"},{"id":"tuzsa-525","title":"(525) JERÓNIMO CÁNCER 24 Líneas: 21, 53","geometry":{"type":"Point","coordinates":[-0.9289067316466998,41.65296914331976]},"link":"http://www.urbanosdezaragoza.es/frm_esquemaparadatime.php?poste=525","icon":"http://www.zaragoza.es/contenidos/iconos/bus.png"},{"id":"tuzsa-520","title":"(520) ISABEL LA CATÓLICA / HOSPITAL INFANTIL Líneas: 42, N4","geometry":{"type":"Point","coordinates":[-0.8999468905011796,41.6360606495557]},"link":"http://www.urbanosdezaragoza.es/frm_esquemaparadatime.php?poste=520","icon":"http://www.zaragoza.es/contenidos/iconos/bus.png"},{"id":"tuzsa-518","title":"(518) ISABEL LA CATÓLICA / ROMAREDA Líneas: 42","geometry":{"type":"Point","coordinates":[-0.9009121672415875,41.635582941948634]},"link":"http://www.urbanosdezaragoza.es/frm_esquemaparadatime.php?poste=518","icon":"http://www.zaragoza.es/contenidos/iconos/bus.png"},{"id":"tuzsa-513","title":"(513) ISABEL LA CATÓLICA 18 Líneas: 42","geometry":{"type":"Point","coordinates":[-0.9034132345510715,41.63373727042434]},"link":"http://www.urbanosdezaragoza.es/frm_esquemaparadatime.php?poste=513","icon":"http://www.zaragoza.es/contenidos/iconos/bus.png"},{"id":"tuzsa-510","title":"(510) ISABEL LA CATÓLICA 3 Líneas: 42, N4","geometry":{"type":"Point","coordinates":[-0.9032159487528998,41.63365711294169]},"link":"http://www.urbanosdezaragoza.es/frm_esquemaparadatime.php?poste=510","icon":"http://www.zaragoza.es/contenidos/iconos/bus.png"},{"id":"tuzsa-509","title":"(509) IRIARTE REINOSO 4 Líneas: 42","geometry":{"type":"Point","coordinates":[-0.9027242056465835,41.65549785786623]},"link":"http://www.urbanosdezaragoza.es/frm_esquemaparadatime.php?poste=509","icon":"http://www.zaragoza.es/contenidos/iconos/bus.png"},{"id":"tuzsa-508","title":"(508) IGNACIO ZAPATA/RUSTE Líneas: 50, N1, 39","geometry":{"type":"Point","coordinates":[-0.8588606287746184,41.661754361027704]},"link":"http://www.urbanosdezaragoza.es/frm_esquemaparadatime.php?poste=508","icon":"http://www.zaragoza.es/contenidos/iconos/bus.png"},{"id":"tuzsa-507","title":"(507) HERNÁN CORTÉS 35 Líneas: N6, 38, 35","geometry":{"type":"Point","coordinates":[-0.890611143963213,41.64773773347729]},"link":"http://www.urbanosdezaragoza.es/frm_esquemaparadatime.php?poste=507","icon":"http://www.zaragoza.es/contenidos/iconos/bus.png"},{"id":"tuzsa-505","title":"(505) HERNÁN CORTÉS 6 Líneas: N6, 35, N4, 38","geometry":{"type":"Point","coordinates":[-0.8882917019387326,41.64940632874091]},"link":"http://www.urbanosdezaragoza.es/frm_esquemaparadatime.php?poste=505","icon":"http://www.zaragoza.es/contenidos/iconos/bus.png"},{"id":"tuzsa-497","title":"(497) GRAN VÍA 11 Líneas: N4","geometry":{"type":"Point","coordinates":[-0.8873400883026232,41.64623656016572]},"link":"http://www.urbanosdezaragoza.es/frm_esquemaparadatime.php?poste=497","icon":"http://www.zaragoza.es/contenidos/iconos/bus.png"},{"id":"tuzsa-493","title":"(493) VALLE DE BROTO / G. AVELLANEDA Líneas: 23, 42, N2","geometry":{"type":"Point","coordinates":[-0.8862004821066023,41.66497612349591]},"link":"http://www.urbanosdezaragoza.es/frm_esquemaparadatime.php?poste=493","icon":"http://www.zaragoza.es/contenidos/iconos/bus.png"},{"id":"tuzsa-491","title":"(491) G. AVELLANEDA 83 Líneas: 43, 44","geometry":{"type":"Point","coordinates":[-0.8906470888065626,41.67773446138594]},"link":"http://www.urbanosdezaragoza.es/frm_esquemaparadatime.php?poste=491","icon":"http://www.zaragoza.es/contenidos/iconos/bus.png"},{"id":"tuzsa-489","title":"(489) G. AVELLANEDA 73 Líneas: 43, 44","geometry":{"type":"Point","coordinates":[-0.8906869886989031,41.67430824761978]},"link":"http://www.urbanosdezaragoza.es/frm_esquemaparadatime.php?poste=489","icon":"http://www.zaragoza.es/contenidos/iconos/bus.png"},{"id":"tuzsa-482","title":"(482) VALLE DE ZURIZA 10 Líneas: 50","geometry":{"type":"Point","coordinates":[-0.874825845145783,41.662028280769604]},"link":"http://www.urbanosdezaragoza.es/frm_esquemaparadatime.php?poste=482","icon":"http://www.zaragoza.es/contenidos/iconos/bus.png"},{"id":"tuzsa-481","title":"(481) GASCON DE GOTOR 26 Líneas: Ci1","geometry":{"type":"Point","coordinates":[-0.8891205000894835,41.6385012193032]},"link":"http://www.urbanosdezaragoza.es/frm_esquemaparadatime.php?poste=481","icon":"http://www.zaragoza.es/contenidos/iconos/bus.png"},{"id":"tuzsa-480","title":"(480) GASCON DE GOTOR 4 Líneas: Ci1","geometry":{"type":"Point","coordinates":[-0.8873651716462608,41.63956772797685]},"link":"http://www.urbanosdezaragoza.es/frm_esquemaparadatime.php?poste=480","icon":"http://www.zaragoza.es/contenidos/iconos/bus.png"},{"id":"tuzsa-479","title":"(479) GARCÍA SÁNCHEZ 26 Líneas: 22, 24","geometry":{"type":"Point","coordinates":[-0.8995051418469561,41.64755393924766]},"link":"http://www.urbanosdezaragoza.es/frm_esquemaparadatime.php?poste=479","icon":"http://www.zaragoza.es/contenidos/iconos/bus.png"},{"id":"tuzsa-478","title":"(478) GARCÍA LORCA 13 Líneas: 40, 23","geometry":{"type":"Point","coordinates":[-0.8785407303697841,41.634658710355275]},"link":"http://www.urbanosdezaragoza.es/frm_esquemaparadatime.php?poste=478","icon":"http://www.zaragoza.es/contenidos/iconos/bus.png"},{"id":"tuzsa-477","title":"(477) GARCÍA ARISTA 16 Líneas: 50","geometry":{"type":"Point","coordinates":[-0.8771239076190218,41.659310318876685]},"link":"http://www.urbanosdezaragoza.es/frm_esquemaparadatime.php?poste=477","icon":"http://www.zaragoza.es/contenidos/iconos/bus.png"},{"id":"tuzsa-476","title":"(476) GALÁN BERGUA / GLORIETA Líneas: 33","geometry":{"type":"Point","coordinates":[-0.9160976423405666,41.64929711164459]},"link":"http://www.urbanosdezaragoza.es/frm_esquemaparadatime.php?poste=476","icon":"http://www.zaragoza.es/contenidos/iconos/bus.png"},{"id":"tuzsa-475","title":"(475) GALÁN BERGUA / COLEGIO Líneas: 33","geometry":{"type":"Point","coordinates":[-0.9143561429540131,41.64700486761709]},"link":"http://www.urbanosdezaragoza.es/frm_esquemaparadatime.php?poste=475","icon":"http://www.zaragoza.es/contenidos/iconos/bus.png"},{"id":"tuzsa-474","title":"(474) GALÁN BERGUA 24 Líneas: 33","geometry":{"type":"Point","coordinates":[-0.9157424560369606,41.648209887255945]},"link":"http://www.urbanosdezaragoza.es/frm_esquemaparadatime.php?poste=474","icon":"http://www.zaragoza.es/contenidos/iconos/bus.png"},{"id":"tuzsa-473","title":"(473) GABRIEL GOMBAO 31 Líneas: 42","geometry":{"type":"Point","coordinates":[-0.8816402571406748,41.62810508184608]},"link":"http://www.urbanosdezaragoza.es/frm_esquemaparadatime.php?poste=473","icon":"http://www.zaragoza.es/contenidos/iconos/bus.png"},{"id":"tuzsa-472","title":"(472) GABRIEL GOMBAO 1 Líneas: C4, 31, N5, 42","geometry":{"type":"Point","coordinates":[-0.8835566434457601,41.627744132691895]},"link":"http://www.urbanosdezaragoza.es/frm_esquemaparadatime.php?poste=472","icon":"http://www.zaragoza.es/contenidos/iconos/bus.png"},{"id":"tuzsa-471","title":"(471) FUEROS DE ARAGÓN 15 Líneas: 41, 38, 35","geometry":{"type":"Point","coordinates":[-0.8950821938880221,41.64688752306516]},"link":"http://www.urbanosdezaragoza.es/frm_esquemaparadatime.php?poste=471","icon":"http://www.zaragoza.es/contenidos/iconos/bus.png"},{"id":"tuzsa-470","title":"(470) FRAY L. URBANO 15 Líneas: 24","geometry":{"type":"Point","coordinates":[-0.858734983072159,41.64796766552999]},"link":"http://www.urbanosdezaragoza.es/frm_esquemaparadatime.php?poste=470","icon":"http://www.zaragoza.es/contenidos/iconos/bus.png"},{"id":"tuzsa-469","title":"(469) FRAY L. URBANO 3 Líneas: 24","geometry":{"type":"Point","coordinates":[-0.8590894063432396,41.64592530744297]},"link":"http://www.urbanosdezaragoza.es/frm_esquemaparadatime.php?poste=469","icon":"http://www.zaragoza.es/contenidos/iconos/bus.png"},{"id":"tuzsa-468","title":"(468) FRAY J. GARCÉS 106 Líneas: 34","geometry":{"type":"Point","coordinates":[-0.8888838947563699,41.62518969084693]},"link":"http://www.urbanosdezaragoza.es/frm_esquemaparadatime.php?poste=468","icon":"http://www.zaragoza.es/contenidos/iconos/bus.png"},{"id":"tuzsa-467","title":"(467) FRAY J. GARCÉS 88 Líneas: C1, 34, 39","geometry":{"type":"Point","coordinates":[-0.8881630520100836,41.62767123608045]},"link":"http://www.urbanosdezaragoza.es/frm_esquemaparadatime.php?poste=467","icon":"http://www.zaragoza.es/contenidos/iconos/bus.png"},{"id":"tuzsa-466","title":"(466) ILUSTRACIÓN 37 Líneas: 41, 54","geometry":{"type":"Point","coordinates":[-0.9416135111900648,41.62793415848044]},"link":"http://www.urbanosdezaragoza.es/frm_esquemaparadatime.php?poste=466","icon":"http://www.zaragoza.es/contenidos/iconos/bus.png"},{"id":"tuzsa-464","title":"(464) FRAY J. GARCÉS 62 Líneas: 42, 31, C4, 34, 39, 33","geometry":{"type":"Point","coordinates":[-0.8876171964949352,41.62909773189761]},"link":"http://www.urbanosdezaragoza.es/frm_esquemaparadatime.php?poste=464","icon":"http://www.zaragoza.es/contenidos/iconos/bus.png"},{"id":"tuzsa-463","title":"(463) FRANCO Y LÓPEZ 57 Líneas: 24","geometry":{"type":"Point","coordinates":[-0.9018620020395834,41.64787614048907]},"link":"http://www.urbanosdezaragoza.es/frm_esquemaparadatime.php?poste=463","icon":"http://www.zaragoza.es/contenidos/iconos/bus.png"},{"id":"tuzsa-462","title":"(462) CC GUARDIA CIVIL Líneas: N7, 28","geometry":{"type":"Point","coordinates":[-0.7968744891120964,41.75871563786804]},"link":"http://www.urbanosdezaragoza.es/frm_esquemaparadatime.php?poste=462","icon":"http://www.zaragoza.es/contenidos/iconos/bus.png"},{"id":"tuzsa-461","title":"(461) MARÍA DE ARAGÓN Líneas: 44","geometry":{"type":"Point","coordinates":[-0.8627666493620413,41.64062587387618]},"link":"http://www.urbanosdezaragoza.es/frm_esquemaparadatime.php?poste=461","icon":"http://www.zaragoza.es/contenidos/iconos/bus.png"},{"id":"tuzsa-460","title":"(460) DOCTOR IRANZO / AZORIN Líneas: 30","geometry":{"type":"Point","coordinates":[-0.8631275747025314,41.65088193442102]},"link":"http://www.urbanosdezaragoza.es/frm_esquemaparadatime.php?poste=460","icon":"http://www.zaragoza.es/contenidos/iconos/bus.png"},{"id":"tuzsa-451","title":"(451) FELISA GALE 7 Líneas: 50, 44, N1, 39","geometry":{"type":"Point","coordinates":[-0.8610184870179867,41.66321309389417]},"link":"http://www.urbanosdezaragoza.es/frm_esquemaparadatime.php?poste=451","icon":"http://www.zaragoza.es/contenidos/iconos/bus.png"},{"id":"tuzsa-449","title":"(449) FEDERICO OZANAM 33 Líneas: N3, 36, 24","geometry":{"type":"Point","coordinates":[-0.9321654041798074,41.64020261253262]},"link":"http://www.urbanosdezaragoza.es/frm_esquemaparadatime.php?poste=449","icon":"http://www.zaragoza.es/contenidos/iconos/bus.png"},{"id":"tuzsa-448","title":"(448) F. CASAMAYOR 20 Líneas: 23, N5","geometry":{"type":"Point","coordinates":[-0.8792232163547149,41.62607453720187]},"link":"http://www.urbanosdezaragoza.es/frm_esquemaparadatime.php?poste=448","icon":"http://www.zaragoza.es/contenidos/iconos/bus.png"},{"id":"tuzsa-446","title":"(446) ESCULTOR PALAO Líneas: 33","geometry":{"type":"Point","coordinates":[-0.9174426483485422,41.64810563583567]},"link":"http://www.urbanosdezaragoza.es/frm_esquemaparadatime.php?poste=446","icon":"http://www.zaragoza.es/contenidos/iconos/bus.png"},{"id":"tuzsa-445","title":"(445) CALLE LUCIANO GRACIA / CAMPUS RÍO EBRO Líneas: 43, 44","geometry":{"type":"Point","coordinates":[-0.8895685552171352,41.68393807926833]},"link":"http://www.urbanosdezaragoza.es/frm_esquemaparadatime.php?poste=445","icon":"http://www.zaragoza.es/contenidos/iconos/bus.png"},{"id":"tuzsa-444","title":"(444) SAN ANTONIO DE PADUA / VALLADOLID Líneas: 42","geometry":{"type":"Point","coordinates":[-0.8752968222548341,41.62910928377513]},"link":"http://www.urbanosdezaragoza.es/frm_esquemaparadatime.php?poste=444","icon":"http://www.zaragoza.es/contenidos/iconos/bus.png"},{"id":"tuzsa-443","title":"(443) DUQUESA VILLAHERMOSA / UNIVERSITAS Líneas: N6, 38","geometry":{"type":"Point","coordinates":[-0.906710027441228,41.64669020796321]},"link":"http://www.urbanosdezaragoza.es/frm_esquemaparadatime.php?poste=443","icon":"http://www.zaragoza.es/contenidos/iconos/bus.png"},{"id":"tuzsa-442","title":"(442) DUQUESA VILLAHERMOSA / UNIVERSITAS Líneas: N6, 22","geometry":{"type":"Point","coordinates":[-0.9066282238680595,41.64682831708289]},"link":"http://www.urbanosdezaragoza.es/frm_esquemaparadatime.php?poste=442","icon":"http://www.zaragoza.es/contenidos/iconos/bus.png"},{"id":"tuzsa-440","title":"(440) DUQUESA VILLAHERMOSA / ALFEREZ ROJAS Líneas: N6, 38","geometry":{"type":"Point","coordinates":[-0.9141113715746442,41.64442906932846]},"link":"http://www.urbanosdezaragoza.es/frm_esquemaparadatime.php?poste=440","icon":"http://www.zaragoza.es/contenidos/iconos/bus.png"},{"id":"tuzsa-439","title":"(439) DUQUESA VILLAHERMOSA 155 Líneas: N6, 38","geometry":{"type":"Point","coordinates":[-0.9137099674293229,41.644421777560574]},"link":"http://www.urbanosdezaragoza.es/frm_esquemaparadatime.php?poste=439","icon":"http://www.zaragoza.es/contenidos/iconos/bus.png"},{"id":"tuzsa-437","title":"(437) DUQUESA VILLAHERMOSA 97 Líneas: N6, 38","geometry":{"type":"Point","coordinates":[-0.9043910772568156,41.64747650515597]},"link":"http://www.urbanosdezaragoza.es/frm_esquemaparadatime.php?poste=437","icon":"http://www.zaragoza.es/contenidos/iconos/bus.png"},{"id":"tuzsa-436","title":"(436) DUQUESA VILLAHERMOSA 42 Líneas: N6, 22","geometry":{"type":"Point","coordinates":[-0.9034305947199261,41.64788677935942]},"link":"http://www.urbanosdezaragoza.es/frm_esquemaparadatime.php?poste=436","icon":"http://www.zaragoza.es/contenidos/iconos/bus.png"},{"id":"tuzsa-435","title":"(435) DUQUESA VILLAHERMOSA 10 Líneas: N6, 22","geometry":{"type":"Point","coordinates":[-0.9009778416079222,41.64873811239401]},"link":"http://www.urbanosdezaragoza.es/frm_esquemaparadatime.php?poste=435","icon":"http://www.zaragoza.es/contenidos/iconos/bus.png"},{"id":"tuzsa-434","title":"(434) DUQUESA VILLAHERMOSA 3 Líneas: 22, N6","geometry":{"type":"Point","coordinates":[-0.8995537833226017,41.64906791678824]},"link":"http://www.urbanosdezaragoza.es/frm_esquemaparadatime.php?poste=434","icon":"http://www.zaragoza.es/contenidos/iconos/bus.png"},{"id":"tuzsa-433","title":"(433) D. JAIME / PLZ SEO Líneas: N7, 35, N2, N1, 39, 29, 28","geometry":{"type":"Point","coordinates":[-0.8765796371075946,41.65540496643521]},"link":"http://www.urbanosdezaragoza.es/frm_esquemaparadatime.php?poste=433","icon":"http://www.zaragoza.es/contenidos/iconos/bus.png"},{"id":"tuzsa-432","title":"(432) PLZ ARIÑO Líneas: 35, 39, 28","geometry":{"type":"Point","coordinates":[-0.8782028439972283,41.6534805738999]},"link":"http://www.urbanosdezaragoza.es/frm_esquemaparadatime.php?poste=432","icon":"http://www.zaragoza.es/contenidos/iconos/bus.png"},{"id":"tuzsa-431","title":"(431) DOCTOR IRANZO 92 / C. SALUD Líneas: 44","geometry":{"type":"Point","coordinates":[-0.8634050565614763,41.65015307275349]},"link":"http://www.urbanosdezaragoza.es/frm_esquemaparadatime.php?poste=431","icon":"http://www.zaragoza.es/contenidos/iconos/bus.png"},{"id":"tuzsa-430","title":"(430) DOCTOR IRANZO 61 Líneas: N5, 44, 30","geometry":{"type":"Point","coordinates":[-0.863847992364632,41.647855663120374]},"link":"http://www.urbanosdezaragoza.es/frm_esquemaparadatime.php?poste=430","icon":"http://www.zaragoza.es/contenidos/iconos/bus.png"},{"id":"tuzsa-429","title":"(429) DOCTOR IRANZO 37 Líneas: 44","geometry":{"type":"Point","coordinates":[-0.8643849307211344,41.64519073459974]},"link":"http://www.urbanosdezaragoza.es/frm_esquemaparadatime.php?poste=429","icon":"http://www.zaragoza.es/contenidos/iconos/bus.png"},{"id":"tuzsa-427","title":"(427) AV PEÑAFLOR 79 Líneas: N7, 28","geometry":{"type":"Point","coordinates":[-0.7960339644471515,41.7599513706843]},"link":"http://www.urbanosdezaragoza.es/frm_esquemaparadatime.php?poste=427","icon":"http://www.zaragoza.es/contenidos/iconos/bus.png"},{"id":"tuzsa-426","title":"(426) CUARTA AVENIDA 70 / PLAZA Líneas: 23, C4, N5","geometry":{"type":"Point","coordinates":[-0.8774525097132514,41.62476298990257]},"link":"http://www.urbanosdezaragoza.es/frm_esquemaparadatime.php?poste=426","icon":"http://www.zaragoza.es/contenidos/iconos/bus.png"},{"id":"tuzsa-425","title":"(425) CUARTA AVENIDA 23 / PLAZA Líneas: 31, C4, 23, N5","geometry":{"type":"Point","coordinates":[-0.8764468114141755,41.62481194516527]},"link":"http://www.urbanosdezaragoza.es/frm_esquemaparadatime.php?poste=425","icon":"http://www.zaragoza.es/contenidos/iconos/bus.png"},{"id":"tuzsa-424","title":"(424) CTRA PEÑAFLOR Líneas: N7, 28","geometry":{"type":"Point","coordinates":[-0.8045248092168047,41.74508254406518]},"link":"http://www.urbanosdezaragoza.es/frm_esquemaparadatime.php?poste=424","icon":"http://www.zaragoza.es/contenidos/iconos/bus.png"},{"id":"tuzsa-423","title":"(423) CTRA PEÑAFLOR Líneas: N7, 28","geometry":{"type":"Point","coordinates":[-0.804332606120907,41.745295018239524]},"link":"http://www.urbanosdezaragoza.es/frm_esquemaparadatime.php?poste=423","icon":"http://www.zaragoza.es/contenidos/iconos/bus.png"},{"id":"tuzsa-422","title":"(422) CTRA PEÑAFLOR Líneas: N7, 28","geometry":{"type":"Point","coordinates":[-0.8085994255375015,41.73516333599019]},"link":"http://www.urbanosdezaragoza.es/frm_esquemaparadatime.php?poste=422","icon":"http://www.zaragoza.es/contenidos/iconos/bus.png"},{"id":"tuzsa-421","title":"(421) CTRA PEÑAFLOR Líneas: N7, 28","geometry":{"type":"Point","coordinates":[-0.8108380144977636,41.71558120480406]},"link":"http://www.urbanosdezaragoza.es/frm_esquemaparadatime.php?poste=421","icon":"http://www.zaragoza.es/contenidos/iconos/bus.png"},{"id":"tuzsa-420","title":"(420) CTRA PEÑAFLOR Líneas: N7, 28","geometry":{"type":"Point","coordinates":[-0.8108606873707621,41.71593288395237]},"link":"http://www.urbanosdezaragoza.es/frm_esquemaparadatime.php?poste=420","icon":"http://www.zaragoza.es/contenidos/iconos/bus.png"},{"id":"tuzsa-419","title":"(419) CTRA PEÑAFLOR Líneas: N7, 28","geometry":{"type":"Point","coordinates":[-0.7977614790535551,41.75674677955212]},"link":"http://www.urbanosdezaragoza.es/frm_esquemaparadatime.php?poste=419","icon":"http://www.zaragoza.es/contenidos/iconos/bus.png"},{"id":"tuzsa-418","title":"(418) CTRA PEÑAFLOR Líneas: N7, 28","geometry":{"type":"Point","coordinates":[-0.8086858586800774,41.735061413693536]},"link":"http://www.urbanosdezaragoza.es/frm_esquemaparadatime.php?poste=418","icon":"http://www.zaragoza.es/contenidos/iconos/bus.png"},{"id":"tuzsa-417","title":"(417) CTRA PEÑAFLOR 771 Líneas: N7, 28","geometry":{"type":"Point","coordinates":[-0.815231836280081,41.70002531750213]},"link":"http://www.urbanosdezaragoza.es/frm_esquemaparadatime.php?poste=417","icon":"http://www.zaragoza.es/contenidos/iconos/bus.png"},{"id":"tuzsa-416","title":"(416) CTRA PEÑAFLOR Líneas: N7, 28","geometry":{"type":"Point","coordinates":[-0.8101151038355335,41.71982290358669]},"link":"http://www.urbanosdezaragoza.es/frm_esquemaparadatime.php?poste=416","icon":"http://www.zaragoza.es/contenidos/iconos/bus.png"},{"id":"tuzsa-415","title":"(415) CTRA PEÑAFLOR 967 Líneas: N7, 28","geometry":{"type":"Point","coordinates":[-0.8113972006206515,41.713605972431644]},"link":"http://www.urbanosdezaragoza.es/frm_esquemaparadatime.php?poste=415","icon":"http://www.zaragoza.es/contenidos/iconos/bus.png"},{"id":"tuzsa-414","title":"(414) CTRA PEÑAFLOR 839 Líneas: N7, 28","geometry":{"type":"Point","coordinates":[-0.8143827826964469,41.705822751529816]},"link":"http://www.urbanosdezaragoza.es/frm_esquemaparadatime.php?poste=414","icon":"http://www.zaragoza.es/contenidos/iconos/bus.png"},{"id":"tuzsa-413","title":"(413) CTRA PEÑAFLOR Líneas: N7, 28","geometry":{"type":"Point","coordinates":[-0.8088204744461325,41.730394215331486]},"link":"http://www.urbanosdezaragoza.es/frm_esquemaparadatime.php?poste=413","icon":"http://www.zaragoza.es/contenidos/iconos/bus.png"},{"id":"tuzsa-412","title":"(412) CTRA PEÑAFLOR Líneas: N7, 28","geometry":{"type":"Point","coordinates":[-0.7976852117083444,41.75681736625026]},"link":"http://www.urbanosdezaragoza.es/frm_esquemaparadatime.php?poste=412","icon":"http://www.zaragoza.es/contenidos/iconos/bus.png"},{"id":"tuzsa-411","title":"(411) CTRA PEÑAFLOR Líneas: N7, 28","geometry":{"type":"Point","coordinates":[-0.8088877306628545,41.73301183075117]},"link":"http://www.urbanosdezaragoza.es/frm_esquemaparadatime.php?poste=411","icon":"http://www.zaragoza.es/contenidos/iconos/bus.png"},{"id":"tuzsa-410","title":"(410) CTRA PEÑAFLOR Líneas: N7, 28","geometry":{"type":"Point","coordinates":[-0.8089460417422971,41.7329589060429]},"link":"http://www.urbanosdezaragoza.es/frm_esquemaparadatime.php?poste=410","icon":"http://www.zaragoza.es/contenidos/iconos/bus.png"},{"id":"tuzsa-409","title":"(409) CTRA PEÑAFLOR Líneas: N7, 28","geometry":{"type":"Point","coordinates":[-0.8104264382125169,41.72466973882194]},"link":"http://www.urbanosdezaragoza.es/frm_esquemaparadatime.php?poste=409","icon":"http://www.zaragoza.es/contenidos/iconos/bus.png"},{"id":"tuzsa-408","title":"(408) CTRA PEÑAFLOR Líneas: N7, 28","geometry":{"type":"Point","coordinates":[-0.8107386137387891,41.72351387855264]},"link":"http://www.urbanosdezaragoza.es/frm_esquemaparadatime.php?poste=408","icon":"http://www.zaragoza.es/contenidos/iconos/bus.png"},{"id":"tuzsa-407","title":"(407) CTRA PEÑAFLOR Líneas: N7, 28","geometry":{"type":"Point","coordinates":[-0.8101457508572742,41.71808977126087]},"link":"http://www.urbanosdezaragoza.es/frm_esquemaparadatime.php?poste=407","icon":"http://www.zaragoza.es/contenidos/iconos/bus.png"},{"id":"tuzsa-406","title":"(406) CTRA PEÑAFLOR Líneas: N7, 28","geometry":{"type":"Point","coordinates":[-0.8100807922714991,41.71823263315849]},"link":"http://www.urbanosdezaragoza.es/frm_esquemaparadatime.php?poste=406","icon":"http://www.zaragoza.es/contenidos/iconos/bus.png"},{"id":"tuzsa-405","title":"(405) CTRA PEÑAFLOR Líneas: N7, 28","geometry":{"type":"Point","coordinates":[-0.8062593611112331,41.74194990959315]},"link":"http://www.urbanosdezaragoza.es/frm_esquemaparadatime.php?poste=405","icon":"http://www.zaragoza.es/contenidos/iconos/bus.png"},{"id":"tuzsa-404","title":"(404) CTRA PEÑAFLOR Líneas: N7, 28","geometry":{"type":"Point","coordinates":[-0.8060008154024042,41.742408791649915]},"link":"http://www.urbanosdezaragoza.es/frm_esquemaparadatime.php?poste=404","icon":"http://www.zaragoza.es/contenidos/iconos/bus.png"},{"id":"tuzsa-403","title":"(403) CTRA PEÑAFLOR / AZUD Líneas: N7, 28","geometry":{"type":"Point","coordinates":[-0.8089105312631175,41.730256246652786]},"link":"http://www.urbanosdezaragoza.es/frm_esquemaparadatime.php?poste=403","icon":"http://www.zaragoza.es/contenidos/iconos/bus.png"},{"id":"tuzsa-402","title":"(402) CTRA PEÑAFLOR Líneas: N7, L1, 28","geometry":{"type":"Point","coordinates":[-0.8101822158023191,41.719648560666855]},"link":"http://www.urbanosdezaragoza.es/frm_esquemaparadatime.php?poste=402","icon":"http://www.zaragoza.es/contenidos/iconos/bus.png"},{"id":"tuzsa-401","title":"(401) CTRA PEÑAFLOR 874 Líneas: N7, L1, 28","geometry":{"type":"Point","coordinates":[-0.8112524467762604,41.71386889913149]},"link":"http://www.urbanosdezaragoza.es/frm_esquemaparadatime.php?poste=401","icon":"http://www.zaragoza.es/contenidos/iconos/bus.png"},{"id":"tuzsa-400","title":"(400) CTRA PEÑAFLOR 935 Líneas: N7, 28","geometry":{"type":"Point","coordinates":[-0.8127627645410924,41.71064180815995]},"link":"http://www.urbanosdezaragoza.es/frm_esquemaparadatime.php?poste=400","icon":"http://www.zaragoza.es/contenidos/iconos/bus.png"},{"id":"tuzsa-399","title":"(399) CTRA PEÑAFLOR 846 Líneas: N7, 28","geometry":{"type":"Point","coordinates":[-0.8126589758158719,41.71070737799821]},"link":"http://www.urbanosdezaragoza.es/frm_esquemaparadatime.php?poste=399","icon":"http://www.zaragoza.es/contenidos/iconos/bus.png"},{"id":"tuzsa-398","title":"(398) CTRA PEÑAFLOR 895 Líneas: N7, 28","geometry":{"type":"Point","coordinates":[-0.8139809430287565,41.70755782679609]},"link":"http://www.urbanosdezaragoza.es/frm_esquemaparadatime.php?poste=398","icon":"http://www.zaragoza.es/contenidos/iconos/bus.png"},{"id":"tuzsa-397","title":"(397) CTRA PEÑAFLOR 820 Líneas: N7, 28","geometry":{"type":"Point","coordinates":[-0.8138247909560695,41.70778901782965]},"link":"http://www.urbanosdezaragoza.es/frm_esquemaparadatime.php?poste=397","icon":"http://www.zaragoza.es/contenidos/iconos/bus.png"},{"id":"tuzsa-396","title":"(396) CTRA PEÑAFLOR 796 Líneas: N7, 28","geometry":{"type":"Point","coordinates":[-0.8143311333049323,41.705772233235095]},"link":"http://www.urbanosdezaragoza.es/frm_esquemaparadatime.php?poste=396","icon":"http://www.zaragoza.es/contenidos/iconos/bus.png"},{"id":"tuzsa-395","title":"(395) CTRA PEÑAFLOR 777 Líneas: N7, 28","geometry":{"type":"Point","coordinates":[-0.815036740761175,41.70270099298997]},"link":"http://www.urbanosdezaragoza.es/frm_esquemaparadatime.php?poste=395","icon":"http://www.zaragoza.es/contenidos/iconos/bus.png"},{"id":"tuzsa-394","title":"(394) CTRA PEÑAFLOR 726 Líneas: N7, 28","geometry":{"type":"Point","coordinates":[-0.8148982846272865,41.70311264946963]},"link":"http://www.urbanosdezaragoza.es/frm_esquemaparadatime.php?poste=394","icon":"http://www.zaragoza.es/contenidos/iconos/bus.png"},{"id":"tuzsa-393","title":"(393) CTRA PEÑAFLOR 684 Líneas: N7, 28","geometry":{"type":"Point","coordinates":[-0.8151855254381143,41.70045223773755]},"link":"http://www.urbanosdezaragoza.es/frm_esquemaparadatime.php?poste=393","icon":"http://www.zaragoza.es/contenidos/iconos/bus.png"},{"id":"tuzsa-392","title":"(392) CTRA MONTAÑANA / VIVEROS Líneas: N7, 28","geometry":{"type":"Point","coordinates":[-0.8338567880112252,41.67276435901081]},"link":"http://www.urbanosdezaragoza.es/frm_esquemaparadatime.php?poste=392","icon":"http://www.zaragoza.es/contenidos/iconos/bus.png"},{"id":"tuzsa-391","title":"(391) CTRA MONTAÑANA / PUENTE Líneas: N7, 28","geometry":{"type":"Point","coordinates":[-0.8296331418684065,41.67702576032276]},"link":"http://www.urbanosdezaragoza.es/frm_esquemaparadatime.php?poste=391","icon":"http://www.zaragoza.es/contenidos/iconos/bus.png"},{"id":"tuzsa-390","title":"(390) CTRA MONTAÑANA / PUENTE Líneas: N7, 28","geometry":{"type":"Point","coordinates":[-0.8296693147976475,41.6770039281997]},"link":"http://www.urbanosdezaragoza.es/frm_esquemaparadatime.php?poste=390","icon":"http://www.zaragoza.es/contenidos/iconos/bus.png"},{"id":"tuzsa-389","title":"(389) CTRA MONTAÑANA / GASOLINERA Líneas: N7, 28","geometry":{"type":"Point","coordinates":[-0.8336111440900874,41.672746214296815]},"link":"http://www.urbanosdezaragoza.es/frm_esquemaparadatime.php?poste=389","icon":"http://www.zaragoza.es/contenidos/iconos/bus.png"},{"id":"tuzsa-388","title":"(388) CTRA MONTAÑANA 489 Líneas: N7, 28","geometry":{"type":"Point","coordinates":[-0.8229155640986943,41.6925877629706]},"link":"http://www.urbanosdezaragoza.es/frm_esquemaparadatime.php?poste=388","icon":"http://www.zaragoza.es/contenidos/iconos/bus.png"},{"id":"tuzsa-387","title":"(387) CTRA MONTAÑANA 254 Líneas: N7, 28","geometry":{"type":"Point","coordinates":[-0.8289258787424051,41.68455073111966]},"link":"http://www.urbanosdezaragoza.es/frm_esquemaparadatime.php?poste=387","icon":"http://www.zaragoza.es/contenidos/iconos/bus.png"},{"id":"tuzsa-386","title":"(386) CTRA MONTAÑANA 500 Líneas: N7, 28","geometry":{"type":"Point","coordinates":[-0.8209102765575016,41.693702620247805]},"link":"http://www.urbanosdezaragoza.es/frm_esquemaparadatime.php?poste=386","icon":"http://www.zaragoza.es/contenidos/iconos/bus.png"},{"id":"tuzsa-385","title":"(385) CTRA MONTAÑANA / BALAY Líneas: N7, 28","geometry":{"type":"Point","coordinates":[-0.8384963277437231,41.670550669068476]},"link":"http://www.urbanosdezaragoza.es/frm_esquemaparadatime.php?poste=385","icon":"http://www.zaragoza.es/contenidos/iconos/bus.png"},{"id":"tuzsa-384","title":"(384) CTRA MONTAÑANA Líneas: N7, 28","geometry":{"type":"Point","coordinates":[-0.8384501341276234,41.67038768406807]},"link":"http://www.urbanosdezaragoza.es/frm_esquemaparadatime.php?poste=384","icon":"http://www.zaragoza.es/contenidos/iconos/bus.png"},{"id":"tuzsa-383","title":"(383) CTRA MONTAÑANA 625 Líneas: N7, 28","geometry":{"type":"Point","coordinates":[-0.8172741064550294,41.69578155644243]},"link":"http://www.urbanosdezaragoza.es/frm_esquemaparadatime.php?poste=383","icon":"http://www.zaragoza.es/contenidos/iconos/bus.png"},{"id":"tuzsa-382","title":"(382) CTRA MONTAÑANA 587 Líneas: N7, 28","geometry":{"type":"Point","coordinates":[-0.8187886263709203,41.69505831271858]},"link":"http://www.urbanosdezaragoza.es/frm_esquemaparadatime.php?poste=382","icon":"http://www.zaragoza.es/contenidos/iconos/bus.png"},{"id":"tuzsa-365","title":"(365) B. RAMAZZINI Líneas: 29","geometry":{"type":"Point","coordinates":[-0.8686885369802012,41.6844487612244]},"link":"http://www.urbanosdezaragoza.es/frm_esquemaparadatime.php?poste=365","icon":"http://www.zaragoza.es/contenidos/iconos/bus.png"},{"id":"tuzsa-381","title":"(381) CTRA MONTAÑANA 584 Líneas: N7, 28","geometry":{"type":"Point","coordinates":[-0.8170304342457307,41.69586248337012]},"link":"http://www.urbanosdezaragoza.es/frm_esquemaparadatime.php?poste=381","icon":"http://www.zaragoza.es/contenidos/iconos/bus.png"},{"id":"tuzsa-380","title":"(380) CTRA MONTAÑANA 574 Líneas: N7, 28","geometry":{"type":"Point","coordinates":[-0.818601264527167,41.69510879068502]},"link":"http://www.urbanosdezaragoza.es/frm_esquemaparadatime.php?poste=380","icon":"http://www.zaragoza.es/contenidos/iconos/bus.png"},{"id":"tuzsa-379","title":"(379) CTRA MONTAÑANA 541 Líneas: N7, 28","geometry":{"type":"Point","coordinates":[-0.8209264803230161,41.693720940556204]},"link":"http://www.urbanosdezaragoza.es/frm_esquemaparadatime.php?poste=379","icon":"http://www.zaragoza.es/contenidos/iconos/bus.png"},{"id":"tuzsa-378","title":"(378) CTRA MONTAÑANA 489 Líneas: N7, 28","geometry":{"type":"Point","coordinates":[-0.8226820888181826,41.69274094632026]},"link":"http://www.urbanosdezaragoza.es/frm_esquemaparadatime.php?poste=378","icon":"http://www.zaragoza.es/contenidos/iconos/bus.png"},{"id":"tuzsa-377","title":"(377) CTRA MONTAÑANA 419 Líneas: N7, 28","geometry":{"type":"Point","coordinates":[-0.825216291085106,41.691172341086485]},"link":"http://www.urbanosdezaragoza.es/frm_esquemaparadatime.php?poste=377","icon":"http://www.zaragoza.es/contenidos/iconos/bus.png"},{"id":"tuzsa-376","title":"(376) CTRA MONTAÑANA 382 Líneas: N7, 28","geometry":{"type":"Point","coordinates":[-0.8251747114505354,41.69117605655321]},"link":"http://www.urbanosdezaragoza.es/frm_esquemaparadatime.php?poste=376","icon":"http://www.zaragoza.es/contenidos/iconos/bus.png"},{"id":"tuzsa-375","title":"(375) CTRA MONTAÑANA 381 Líneas: N7, 28","geometry":{"type":"Point","coordinates":[-0.826530190891381,41.68986428211501]},"link":"http://www.urbanosdezaragoza.es/frm_esquemaparadatime.php?poste=375","icon":"http://www.zaragoza.es/contenidos/iconos/bus.png"},{"id":"tuzsa-374","title":"(374) CTRA MONTAÑANA 354 Líneas: N7, 28","geometry":{"type":"Point","coordinates":[-0.8265354296331597,41.68981934944539]},"link":"http://www.urbanosdezaragoza.es/frm_esquemaparadatime.php?poste=374","icon":"http://www.zaragoza.es/contenidos/iconos/bus.png"},{"id":"tuzsa-373","title":"(373) CTRA MONTAÑANA 341 Líneas: N7, 28","geometry":{"type":"Point","coordinates":[-0.8278028078296563,41.6885959551562]},"link":"http://www.urbanosdezaragoza.es/frm_esquemaparadatime.php?poste=373","icon":"http://www.zaragoza.es/contenidos/iconos/bus.png"},{"id":"tuzsa-372","title":"(372) CTRA MONTAÑANA 332 Líneas: N7, 28","geometry":{"type":"Point","coordinates":[-0.8274927717356901,41.68886478264043]},"link":"http://www.urbanosdezaragoza.es/frm_esquemaparadatime.php?poste=372","icon":"http://www.zaragoza.es/contenidos/iconos/bus.png"},{"id":"tuzsa-371","title":"(371) CTRA MONTAÑANA 288 Líneas: N7, 28","geometry":{"type":"Point","coordinates":[-0.8287027271770774,41.686829627482346]},"link":"http://www.urbanosdezaragoza.es/frm_esquemaparadatime.php?poste=371","icon":"http://www.zaragoza.es/contenidos/iconos/bus.png"},{"id":"tuzsa-370","title":"(370) CTRA MONTAÑANA 283 Líneas: N7, 28","geometry":{"type":"Point","coordinates":[-0.8287726467691838,41.68641215340262]},"link":"http://www.urbanosdezaragoza.es/frm_esquemaparadatime.php?poste=370","icon":"http://www.zaragoza.es/contenidos/iconos/bus.png"},{"id":"tuzsa-369","title":"(369) CTRA MONTAÑANA 254 Líneas: N7, 28","geometry":{"type":"Point","coordinates":[-0.8288629301519107,41.68465761717986]},"link":"http://www.urbanosdezaragoza.es/frm_esquemaparadatime.php?poste=369","icon":"http://www.zaragoza.es/contenidos/iconos/bus.png"},{"id":"tuzsa-368","title":"(368) CTRA MONTAÑANA 172 Líneas: N7, 28","geometry":{"type":"Point","coordinates":[-0.8292663749042598,41.68114375123608]},"link":"http://www.urbanosdezaragoza.es/frm_esquemaparadatime.php?poste=368","icon":"http://www.zaragoza.es/contenidos/iconos/bus.png"},{"id":"tuzsa-367","title":"(367) CTRA MONTAÑANA 159 Líneas: N7, 28","geometry":{"type":"Point","coordinates":[-0.8294697916451083,41.680521653650544]},"link":"http://www.urbanosdezaragoza.es/frm_esquemaparadatime.php?poste=367","icon":"http://www.zaragoza.es/contenidos/iconos/bus.png"},{"id":"tuzsa-366","title":"(366) CTRA HUESCA / PASARELA Líneas: N7, 29","geometry":{"type":"Point","coordinates":[-0.8700853865898377,41.69303977032142]},"link":"http://www.urbanosdezaragoza.es/frm_esquemaparadatime.php?poste=366","icon":"http://www.zaragoza.es/contenidos/iconos/bus.png"},{"id":"tuzsa-363","title":"(363) CTRA MADRID 50 Líneas: N3, 36, 24","geometry":{"type":"Point","coordinates":[-0.9223700270459126,41.64750580230588]},"link":"http://www.urbanosdezaragoza.es/frm_esquemaparadatime.php?poste=363","icon":"http://www.zaragoza.es/contenidos/iconos/bus.png"},{"id":"tuzsa-362","title":"(362) CTRA MADRID 44 Líneas: N3, 36, 24","geometry":{"type":"Point","coordinates":[-0.9206697695629796,41.64871342070651]},"link":"http://www.urbanosdezaragoza.es/frm_esquemaparadatime.php?poste=362","icon":"http://www.zaragoza.es/contenidos/iconos/bus.png"},{"id":"tuzsa-361","title":"(361) CTRA MADRID 11 Líneas: 24, 36","geometry":{"type":"Point","coordinates":[-0.9221471234800687,41.64751077576402]},"link":"http://www.urbanosdezaragoza.es/frm_esquemaparadatime.php?poste=361","icon":"http://www.zaragoza.es/contenidos/iconos/bus.png"},{"id":"tuzsa-360","title":"(360) CTRA MADRID 3 Líneas: 24, 36","geometry":{"type":"Point","coordinates":[-0.9200567612110244,41.64894099120952]},"link":"http://www.urbanosdezaragoza.es/frm_esquemaparadatime.php?poste=360","icon":"http://www.zaragoza.es/contenidos/iconos/bus.png"},{"id":"tuzsa-357","title":"(357) CTRA CASTELLÓN / POL. IND. SAN VALERO Líneas: 25, N6","geometry":{"type":"Point","coordinates":[-0.8440789976143208,41.61809377712256]},"link":"http://www.urbanosdezaragoza.es/frm_esquemaparadatime.php?poste=357","icon":"http://www.zaragoza.es/contenidos/iconos/bus.png"},{"id":"tuzsa-356","title":"(356) CTRA CASTELLÓN / S. VALERO Líneas: N6, 25","geometry":{"type":"Point","coordinates":[-0.8427243533114633,41.61870779495356]},"link":"http://www.urbanosdezaragoza.es/frm_esquemaparadatime.php?poste=356","icon":"http://www.zaragoza.es/contenidos/iconos/bus.png"},{"id":"tuzsa-355","title":"(355) ESTACIÓN DELICIAS SALIDAS Líneas: Ci2, 51, 34","geometry":{"type":"Point","coordinates":[-0.9082852104680369,41.657751842936584]},"link":"http://www.urbanosdezaragoza.es/frm_esquemaparadatime.php?poste=355","icon":"http://www.zaragoza.es/contenidos/iconos/bus.png"},{"id":"tuzsa-354","title":"(354) CTRA CASTELLÓN / GASOLINERA Líneas: 25, N6","geometry":{"type":"Point","coordinates":[-0.8462617964712903,41.623277436629216]},"link":"http://www.urbanosdezaragoza.es/frm_esquemaparadatime.php?poste=354","icon":"http://www.zaragoza.es/contenidos/iconos/bus.png"},{"id":"tuzsa-353","title":"(353) CTRA CASTELLÓN Líneas: 25, N6","geometry":{"type":"Point","coordinates":[-0.8534855018446568,41.628456234026615]},"link":"http://www.urbanosdezaragoza.es/frm_esquemaparadatime.php?poste=353","icon":"http://www.zaragoza.es/contenidos/iconos/bus.png"},{"id":"tuzsa-352","title":"(352) RAMÍREZ ORELLANO 82 Líneas: N6, 25","geometry":{"type":"Point","coordinates":[-0.8269864821984643,41.604888004884366]},"link":"http://www.urbanosdezaragoza.es/frm_esquemaparadatime.php?poste=352","icon":"http://www.zaragoza.es/contenidos/iconos/bus.png"},{"id":"tuzsa-350","title":"(350) CTRA CASTELLÓN / WALTHON Líneas: N6, 25","geometry":{"type":"Point","coordinates":[-0.8341370764963443,41.610485436943684]},"link":"http://www.urbanosdezaragoza.es/frm_esquemaparadatime.php?poste=350","icon":"http://www.zaragoza.es/contenidos/iconos/bus.png"},{"id":"tuzsa-349","title":"(349) CTRA CASTELLÓN / CEMENTERIO Líneas: N6, 25","geometry":{"type":"Point","coordinates":[-0.8534228013796603,41.62855863636414]},"link":"http://www.urbanosdezaragoza.es/frm_esquemaparadatime.php?poste=349","icon":"http://www.zaragoza.es/contenidos/iconos/bus.png"},{"id":"tuzsa-348","title":"(348) MARTIN DIEZ DE AUX Líneas: 41, N4","geometry":{"type":"Point","coordinates":[-0.9436713227329089,41.62817366931189]},"link":"http://www.urbanosdezaragoza.es/frm_esquemaparadatime.php?poste=348","icon":"http://www.zaragoza.es/contenidos/iconos/bus.png"},{"id":"tuzsa-347","title":"(347) CRISTO REY 77 Líneas: N7, 29, 50","geometry":{"type":"Point","coordinates":[-0.8637973276342324,41.69105870361887]},"link":"http://www.urbanosdezaragoza.es/frm_esquemaparadatime.php?poste=347","icon":"http://www.zaragoza.es/contenidos/iconos/bus.png"},{"id":"tuzsa-346","title":"(346) CRISTO REY 23 Líneas: N7, 29, 50","geometry":{"type":"Point","coordinates":[-0.8659108541629281,41.69294882526988]},"link":"http://www.urbanosdezaragoza.es/frm_esquemaparadatime.php?poste=346","icon":"http://www.zaragoza.es/contenidos/iconos/bus.png"},{"id":"tuzsa-340","title":"(340) COSO 188 Líneas: 22, 32, 21, 39, 29, N1, 28, 35","geometry":{"type":"Point","coordinates":[-0.872221963422927,41.65276646354875]},"link":"http://www.urbanosdezaragoza.es/frm_esquemaparadatime.php?poste=340","icon":"http://www.zaragoza.es/contenidos/iconos/bus.png"},{"id":"rural-338","title":"(338) Esquina calle Atiliana Líneas: 501","geometry":{"type":"Point","coordinates":[-0.9949808978762993,41.65157432469261]},"icon":"http://www.zaragoza.es/contenidos/iconos/bus.png"},{"id":"tuzsa-338","title":"(338) COSO 126 Líneas: 22, 32, 21, 39, N1, 35","geometry":{"type":"Point","coordinates":[-0.8754985672946342,41.650917768616154]},"link":"http://www.urbanosdezaragoza.es/frm_esquemaparadatime.php?poste=338","icon":"http://www.zaragoza.es/contenidos/iconos/bus.png"},{"id":"rural-337","title":"(337) Esquina calle Atiliana Líneas: 501","geometry":{"type":"Point","coordinates":[-0.9947666711423622,41.65170568287888]},"icon":"http://www.zaragoza.es/contenidos/iconos/bus.png"},{"id":"tuzsa-336","title":"(336) COSO 66 Líneas: 29, 28","geometry":{"type":"Point","coordinates":[-0.8791234255744343,41.65152057502422]},"link":"http://www.urbanosdezaragoza.es/frm_esquemaparadatime.php?poste=336","icon":"http://www.zaragoza.es/contenidos/iconos/bus.png"},{"id":"tuzsa-335","title":"(335) COSO 62 Líneas: 38, 39","geometry":{"type":"Point","coordinates":[-0.8795199804639321,41.65165849277283]},"link":"http://www.urbanosdezaragoza.es/frm_esquemaparadatime.php?poste=335","icon":"http://www.zaragoza.es/contenidos/iconos/bus.png"},{"id":"tuzsa-334","title":"(334) COSO 55 / T.PRINCIPAL Líneas: 21, 38","geometry":{"type":"Point","coordinates":[-0.879597156795271,41.65179501485756]},"link":"http://www.urbanosdezaragoza.es/frm_esquemaparadatime.php?poste=334","icon":"http://www.zaragoza.es/contenidos/iconos/bus.png"},{"id":"tuzsa-333","title":"(333) COSO 54 / BANCO DE ESPAÑA Líneas: 21","geometry":{"type":"Point","coordinates":[-0.8801009131017384,41.65187186505505]},"link":"http://www.urbanosdezaragoza.es/frm_esquemaparadatime.php?poste=333","icon":"http://www.zaragoza.es/contenidos/iconos/bus.png"},{"id":"rural-330","title":"(330) Avenida de Navarra 3 Líneas: 604, 601, 501, 602, 603","geometry":{"type":"Point","coordinates":[-0.9016740797206355,41.65466367646251]},"icon":"http://www.zaragoza.es/contenidos/iconos/bus.png"},{"id":"rural-329","title":"(329) Estación Delicias (Vestíbulo de salidas AVE) Líneas: 501","geometry":{"type":"Point","coordinates":[-0.9085639957710984,41.65828830246174]},"icon":"http://www.zaragoza.es/contenidos/iconos/bus.png"},{"id":"tuzsa-329","title":"(329) CORONA ARAGÓN 51 Líneas: 24","geometry":{"type":"Point","coordinates":[-0.899449029209868,41.64479242739948]},"link":"http://www.urbanosdezaragoza.es/frm_esquemaparadatime.php?poste=329","icon":"http://www.zaragoza.es/contenidos/iconos/bus.png"},{"id":"rural-328","title":"(328) Los Enlaces Líneas: 501","geometry":{"type":"Point","coordinates":[-0.9193147082653722,41.65194472119989]},"icon":"http://www.zaragoza.es/contenidos/iconos/bus.png"},{"id":"tuzsa-328","title":"(328) CORONA ARAGÓN 33 Líneas: 24","geometry":{"type":"Point","coordinates":[-0.8967481226560076,41.6433649952001]},"link":"http://www.urbanosdezaragoza.es/frm_esquemaparadatime.php?poste=328","icon":"http://www.zaragoza.es/contenidos/iconos/bus.png"},{"id":"rural-327","title":"(327) C.C. Alcampo Los Enlaces Líneas: 501","geometry":{"type":"Point","coordinates":[-0.9356283970170822,41.644367290866334]},"icon":"http://www.zaragoza.es/contenidos/iconos/bus.png"},{"id":"tuzsa-327","title":"(327) CONDES ARAGÓN / V.HISPANIDAD Líneas: 42, 35, N4","geometry":{"type":"Point","coordinates":[-0.9086855870757982,41.63454483286627]},"link":"http://www.urbanosdezaragoza.es/frm_esquemaparadatime.php?poste=327","icon":"http://www.zaragoza.es/contenidos/iconos/bus.png"},{"id":"rural-326","title":"(326) C.C. Plaza Imperial Líneas: 501","geometry":{"type":"Point","coordinates":[-0.9869248624458076,41.63395619791715]},"icon":"http://www.zaragoza.es/contenidos/iconos/bus.png"},{"id":"tuzsa-326","title":"(326) CONDES ARAGÓN 24 / J.PABLO II Líneas: 42, 35, N4","geometry":{"type":"Point","coordinates":[-0.9071061379991838,41.63674066445057]},"link":"http://www.urbanosdezaragoza.es/frm_esquemaparadatime.php?poste=326","icon":"http://www.zaragoza.es/contenidos/iconos/bus.png"},{"id":"rural-325","title":"(325) Alquiler de vehículos Hispania Líneas: 501","geometry":{"type":"Point","coordinates":[-0.9905080439326134,41.63572568319155]},"icon":"http://www.zaragoza.es/contenidos/iconos/bus.png"},{"id":"tuzsa-325","title":"(325) CONDES ARAGÓN 16 Líneas: 42, 35, 53","geometry":{"type":"Point","coordinates":[-0.9056981554526582,41.63873244866374]},"link":"http://www.urbanosdezaragoza.es/frm_esquemaparadatime.php?poste=325","icon":"http://www.zaragoza.es/contenidos/iconos/bus.png"},{"id":"rural-324","title":"(324) Imaginarium Líneas: 501","geometry":{"type":"Point","coordinates":[-0.9901084955610672,41.64269427106399]},"icon":"http://www.zaragoza.es/contenidos/iconos/bus.png"},{"id":"tuzsa-324","title":"(324) C. ARANDA 122 / PZA.PORTILLO Líneas: N7, 33, N3, N2, 32, 52, 34","geometry":{"type":"Point","coordinates":[-0.8917977918329256,41.65590137086731]},"link":"http://www.urbanosdezaragoza.es/frm_esquemaparadatime.php?poste=324","icon":"http://www.zaragoza.es/contenidos/iconos/bus.png"},{"id":"rural-323","title":"(323) CISAE Líneas: 501","geometry":{"type":"Point","coordinates":[-0.9842956328870709,41.64198905784]},"icon":"http://www.zaragoza.es/contenidos/iconos/bus.png"},{"id":"rural-322","title":"(322) Lapuente Logística Líneas: 501","geometry":{"type":"Point","coordinates":[-0.9818952161068015,41.64376622931581]},"icon":"http://www.zaragoza.es/contenidos/iconos/bus.png"},{"id":"rural-321","title":"(321) Turiaso Líneas: 501","geometry":{"type":"Point","coordinates":[-0.9789282228312831,41.645456825438636]},"icon":"http://www.zaragoza.es/contenidos/iconos/bus.png"},{"id":"tuzsa-321","title":"(321) C. ARANDA 62 Líneas: N7, 33, N3, N2, 32, 52, 34","geometry":{"type":"Point","coordinates":[-0.8883793902316902,41.655176579967495]},"link":"http://www.urbanosdezaragoza.es/frm_esquemaparadatime.php?poste=321","icon":"http://www.zaragoza.es/contenidos/iconos/bus.png"},{"id":"rural-320","title":"(320) Edificio TIC XXI Líneas: 501","geometry":{"type":"Point","coordinates":[-0.9727165242547977,41.64621207159461]},"icon":"http://www.zaragoza.es/contenidos/iconos/bus.png"},{"id":"tuzsa-320","title":"(320) C. ARANDA 41 Líneas: 32, 52, N3, 34, 33","geometry":{"type":"Point","coordinates":[-0.8882340436525237,41.655074835807774]},"link":"http://www.urbanosdezaragoza.es/frm_esquemaparadatime.php?poste=320","icon":"http://www.zaragoza.es/contenidos/iconos/bus.png"},{"id":"rural-319","title":"(319) Hotel Rey Fernando (esquina calle Osca) Líneas: 501","geometry":{"type":"Point","coordinates":[-0.9824820161886159,41.651125873980696]},"icon":"http://www.zaragoza.es/contenidos/iconos/bus.png"},{"id":"rural-318","title":"(318) Barclays (esquina calle Atiliana) Líneas: 501","geometry":{"type":"Point","coordinates":[-0.9907402057864548,41.6543733921911]},"icon":"http://www.zaragoza.es/contenidos/iconos/bus.png"},{"id":"rural-317","title":"(317) Caladero (esquina calle Bari) Líneas: 501","geometry":{"type":"Point","coordinates":[-0.9990799103262537,41.65319043104266]},"icon":"http://www.zaragoza.es/contenidos/iconos/bus.png"},{"id":"tuzsa-317","title":"(317) C. ARANDA 7 / ESCUELAS PIAS Líneas: 32, 52, N3, 33","geometry":{"type":"Point","coordinates":[-0.8852225370913323,41.65432600155228]},"link":"http://www.urbanosdezaragoza.es/frm_esquemaparadatime.php?poste=317","icon":"http://www.zaragoza.es/contenidos/iconos/bus.png"},{"id":"rural-316","title":"(316) Aeropuerto de Zaragoza Líneas: 501","geometry":{"type":"Point","coordinates":[-1.0070214102015134,41.663195179799935]},"icon":"http://www.zaragoza.es/contenidos/iconos/bus.png"},{"id":"rural-315","title":"(315) Real Aeroclub de Zaragoza Líneas: 501","geometry":{"type":"Point","coordinates":[-1.0064967599855328,41.664316394615575]},"icon":"http://www.zaragoza.es/contenidos/iconos/bus.png"},{"id":"tuzsa-315","title":"(315) C. ARANDA 2 / ESCUELAS PIAS Líneas: N7, 33, N3, 32, N2, 52, 34","geometry":{"type":"Point","coordinates":[-0.8851049140508763,41.65436436414047]},"link":"http://www.urbanosdezaragoza.es/frm_esquemaparadatime.php?poste=315","icon":"http://www.zaragoza.es/contenidos/iconos/bus.png"},{"id":"rural-314","title":"(314) Caladero (esquina calle Bari) Líneas: 501","geometry":{"type":"Point","coordinates":[-0.9988294971652553,41.65330765655047]},"icon":"http://www.zaragoza.es/contenidos/iconos/bus.png"},{"id":"tuzsa-314","title":"(314) C. DE CASPE 72 Líneas: 22","geometry":{"type":"Point","coordinates":[-0.8617924884372662,41.64517851416615]},"link":"http://www.urbanosdezaragoza.es/frm_esquemaparadatime.php?poste=314","icon":"http://www.zaragoza.es/contenidos/iconos/bus.png"},{"id":"rural-313","title":"(313) Barclays (esquina calle Atiliana) Líneas: 501","geometry":{"type":"Point","coordinates":[-0.9906777331664564,41.65446686789449]},"icon":"http://www.zaragoza.es/contenidos/iconos/bus.png"},{"id":"tuzsa-313","title":"(313) C. DE CASPE 48 Líneas: 24, 22, N5, 30","geometry":{"type":"Point","coordinates":[-0.8648209968715814,41.64548254750781]},"link":"http://www.urbanosdezaragoza.es/frm_esquemaparadatime.php?poste=313","icon":"http://www.zaragoza.es/contenidos/iconos/bus.png"},{"id":"rural-312","title":"(312) Hotel Rey Fernando (esquina calle Osca) Líneas: 501","geometry":{"type":"Point","coordinates":[-0.9822905594144379,41.65118105317998]},"icon":"http://www.zaragoza.es/contenidos/iconos/bus.png"},{"id":"tuzsa-312","title":"(312) C. DE CASPE 27 Líneas: N5, 24","geometry":{"type":"Point","coordinates":[-0.8694260316584443,41.646036332757916]},"link":"http://www.urbanosdezaragoza.es/frm_esquemaparadatime.php?poste=312","icon":"http://www.zaragoza.es/contenidos/iconos/bus.png"},{"id":"rural-311","title":"(311) Edificio TIC XXI Líneas: 501","geometry":{"type":"Point","coordinates":[-0.9726292009864248,41.64612496820523]},"icon":"http://www.zaragoza.es/contenidos/iconos/bus.png"},{"id":"rural-310","title":"(310) Grupo Usieto Líneas: 501","geometry":{"type":"Point","coordinates":[-0.9792060128509635,41.645389660873526]},"icon":"http://www.zaragoza.es/contenidos/iconos/bus.png"},{"id":"rural-309","title":"(309) Lapuente Logística Líneas: 501","geometry":{"type":"Point","coordinates":[-0.9818242690672211,41.64363889111954]},"icon":"http://www.zaragoza.es/contenidos/iconos/bus.png"},{"id":"tuzsa-309","title":"(309) ALFONSO COMÍN ROS / EMILIO FERREIRO Líneas: 32","geometry":{"type":"Point","coordinates":[-0.9151946094910451,41.654027136391214]},"link":"http://www.urbanosdezaragoza.es/frm_esquemaparadatime.php?poste=309","icon":"http://www.zaragoza.es/contenidos/iconos/bus.png"},{"id":"rural-308","title":"(308) CISAE Líneas: 501","geometry":{"type":"Point","coordinates":[-0.9844576215950991,41.64191534484452]},"icon":"http://www.zaragoza.es/contenidos/iconos/bus.png"},{"id":"tuzsa-308","title":"(308) ALFONSO COMÍN ROS 3 Líneas: 32","geometry":{"type":"Point","coordinates":[-0.9128854373403098,41.65500742460612]},"link":"http://www.urbanosdezaragoza.es/frm_esquemaparadatime.php?poste=308","icon":"http://www.zaragoza.es/contenidos/iconos/bus.png"},{"id":"rural-307","title":"(307) Imaginarium Líneas: 501","geometry":{"type":"Point","coordinates":[-0.9899825917785732,41.64258849249318]},"icon":"http://www.zaragoza.es/contenidos/iconos/bus.png"},{"id":"rural-306","title":"(306) Alquiler de vehículos Hispania Líneas: 501","geometry":{"type":"Point","coordinates":[-0.9900985573136387,41.63584461054102]},"icon":"http://www.zaragoza.es/contenidos/iconos/bus.png"},{"id":"rural-305","title":"(305) C.C. Plaza Imperial Líneas: 501","geometry":{"type":"Point","coordinates":[-0.9866992477570826,41.63393423054034]},"icon":"http://www.zaragoza.es/contenidos/iconos/bus.png"},{"id":"tuzsa-305","title":"(305) ISMAEL HIPÓLITO LOR VICENTE Líneas: 52","geometry":{"type":"Point","coordinates":[-0.9275906591585443,41.65805666985887]},"link":"http://www.urbanosdezaragoza.es/frm_esquemaparadatime.php?poste=305","icon":"http://www.zaragoza.es/contenidos/iconos/bus.png"},{"id":"rural-304","title":"(304) C.C. Alcampo Los Enlaces Líneas: 501","geometry":{"type":"Point","coordinates":[-0.9356814966041869,41.64458440154617]},"icon":"http://www.zaragoza.es/contenidos/iconos/bus.png"},{"id":"tuzsa-304","title":"(304) CAMINO DEL PILÓN / FRENTE Num 21 Líneas: 52","geometry":{"type":"Point","coordinates":[-0.9256669277322264,41.658670401622885]},"link":"http://www.urbanosdezaragoza.es/frm_esquemaparadatime.php?poste=304","icon":"http://www.zaragoza.es/contenidos/iconos/bus.png"},{"id":"rural-303","title":"(303) Los Enlaces Líneas: 501","geometry":{"type":"Point","coordinates":[-0.9194970119843165,41.65194802424793]},"icon":"http://www.zaragoza.es/contenidos/iconos/bus.png"},{"id":"rural-302","title":"(302) Estación Delicias (Vestíbulo de llegadas AVE) Líneas: 501","geometry":{"type":"Point","coordinates":[-0.9138221947466463,41.65922596628215]},"icon":"http://www.zaragoza.es/contenidos/iconos/bus.png"},{"id":"rural-301","title":"(301) Avenida de Navarra 12 Líneas: 602, 604, 603, 501, 601","geometry":{"type":"Point","coordinates":[-0.9019782159438485,41.65485386670561]},"icon":"http://www.zaragoza.es/contenidos/iconos/bus.png"},{"id":"tuzsa-301","title":"(301) CAMINO DEL PILÓN S / N Líneas: 53, N3, L1, 52","geometry":{"type":"Point","coordinates":[-0.9368121716938174,41.6589296445831]},"link":"http://www.urbanosdezaragoza.es/frm_esquemaparadatime.php?poste=301","icon":"http://www.zaragoza.es/contenidos/iconos/bus.png"},{"id":"tuzsa-300","title":"(300) CAMINO DEL PILÓN / IGLESIA Líneas: 52, N3, 53","geometry":{"type":"Point","coordinates":[-0.942169414832163,41.65871496079272]},"link":"http://www.urbanosdezaragoza.es/frm_esquemaparadatime.php?poste=300","icon":"http://www.zaragoza.es/contenidos/iconos/bus.png"},{"id":"tuzsa-299","title":"(299) CAMINO DEL PILÓN 131 Líneas: 52, N3, 53","geometry":{"type":"Point","coordinates":[-0.9403920604105794,41.65867408925714]},"link":"http://www.urbanosdezaragoza.es/frm_esquemaparadatime.php?poste=299","icon":"http://www.zaragoza.es/contenidos/iconos/bus.png"},{"id":"rural-299","title":"(299) Avenida de Movera Líneas: 201","geometry":{"type":"Point","coordinates":[-0.8077396301538449,41.64351143773157]},"icon":"http://www.zaragoza.es/contenidos/iconos/bus.png"},{"id":"tuzsa-298","title":"(298) CAMINO DEL PILÓN 122 Líneas: N3, 53, 52","geometry":{"type":"Point","coordinates":[-0.9410079564143692,41.65868063113034]},"link":"http://www.urbanosdezaragoza.es/frm_esquemaparadatime.php?poste=298","icon":"http://www.zaragoza.es/contenidos/iconos/bus.png"},{"id":"rural-298","title":"(298) Avenida de Movera Líneas: 201","geometry":{"type":"Point","coordinates":[-0.8081092245021055,41.643532003705936]},"icon":"http://www.zaragoza.es/contenidos/iconos/bus.png"},{"id":"tuzsa-297","title":"(297) CAMINO DEL PILÓN 86 Líneas: 52, 53","geometry":{"type":"Point","coordinates":[-0.9372968985369884,41.658906830087]},"link":"http://www.urbanosdezaragoza.es/frm_esquemaparadatime.php?poste=297","icon":"http://www.zaragoza.es/contenidos/iconos/bus.png"},{"id":"tuzsa-296","title":"(296) CAMINO DEL PILÓN 57 Líneas: 52","geometry":{"type":"Point","coordinates":[-0.9309219461513206,41.658535454569915]},"link":"http://www.urbanosdezaragoza.es/frm_esquemaparadatime.php?poste=296","icon":"http://www.zaragoza.es/contenidos/iconos/bus.png"},{"id":"tuzsa-295","title":"(295) CAMINO DEL PILÓN 39 Líneas: 52","geometry":{"type":"Point","coordinates":[-0.9286591233185989,41.65839117493702]},"link":"http://www.urbanosdezaragoza.es/frm_esquemaparadatime.php?poste=295","icon":"http://www.zaragoza.es/contenidos/iconos/bus.png"},{"id":"tuzsa-294","title":"(294) CAMINO LAS TORRES / PZA.SCHWEITZER Líneas: Ci1","geometry":{"type":"Point","coordinates":[-0.8819150181158227,41.64262418288907]},"link":"http://www.urbanosdezaragoza.es/frm_esquemaparadatime.php?poste=294","icon":"http://www.zaragoza.es/contenidos/iconos/bus.png"},{"id":"tuzsa-293","title":"(293) CAMINO LAS TORRES 116 Líneas: Ci1, 24","geometry":{"type":"Point","coordinates":[-0.8857349025512201,41.64018618830261]},"link":"http://www.urbanosdezaragoza.es/frm_esquemaparadatime.php?poste=293","icon":"http://www.zaragoza.es/contenidos/iconos/bus.png"},{"id":"tuzsa-291","title":"(291) CAMINO LAS TORRES 105 Líneas: 24","geometry":{"type":"Point","coordinates":[-0.8856121895183108,41.64009836723626]},"link":"http://www.urbanosdezaragoza.es/frm_esquemaparadatime.php?poste=291","icon":"http://www.zaragoza.es/contenidos/iconos/bus.png"},{"id":"tuzsa-290","title":"(290) CAMINO LAS TORRES 79 Líneas: Ci2","geometry":{"type":"Point","coordinates":[-0.8833151993651979,41.64135748350636]},"link":"http://www.urbanosdezaragoza.es/frm_esquemaparadatime.php?poste=290","icon":"http://www.zaragoza.es/contenidos/iconos/bus.png"},{"id":"tuzsa-289","title":"(289) CAMINO LAS TORRES 49 Líneas: Ci2","geometry":{"type":"Point","coordinates":[-0.8812974927439743,41.642891990819855]},"link":"http://www.urbanosdezaragoza.es/frm_esquemaparadatime.php?poste=289","icon":"http://www.zaragoza.es/contenidos/iconos/bus.png"},{"id":"tuzsa-288","title":"(288) CAMINO LAS TORRES 40 Líneas: Ci1","geometry":{"type":"Point","coordinates":[-0.8787919374849514,41.644313786177364]},"link":"http://www.urbanosdezaragoza.es/frm_esquemaparadatime.php?poste=288","icon":"http://www.zaragoza.es/contenidos/iconos/bus.png"},{"id":"tuzsa-287","title":"(287) CAMINO LAS TORRES 35 Líneas: Ci2","geometry":{"type":"Point","coordinates":[-0.8787624568619588,41.644151125179434]},"link":"http://www.urbanosdezaragoza.es/frm_esquemaparadatime.php?poste=287","icon":"http://www.zaragoza.es/contenidos/iconos/bus.png"},{"id":"tuzsa-285","title":"(285) CAMINO LAS TORRES 17 Líneas: Ci2","geometry":{"type":"Point","coordinates":[-0.8752864084741723,41.64581618783449]},"link":"http://www.urbanosdezaragoza.es/frm_esquemaparadatime.php?poste=285","icon":"http://www.zaragoza.es/contenidos/iconos/bus.png"},{"id":"tuzsa-284","title":"(284) CAMINO LAS TORRES 10 Líneas: Ci1, 29","geometry":{"type":"Point","coordinates":[-0.8739865652699829,41.64658019323847]},"link":"http://www.urbanosdezaragoza.es/frm_esquemaparadatime.php?poste=284","icon":"http://www.zaragoza.es/contenidos/iconos/bus.png"},{"id":"tuzsa-283","title":"(283) ILUSTRACIÓN 40 Líneas: 41","geometry":{"type":"Point","coordinates":[-0.941208433654067,41.62925536103313]},"link":"http://www.urbanosdezaragoza.es/frm_esquemaparadatime.php?poste=283","icon":"http://www.zaragoza.es/contenidos/iconos/bus.png"},{"id":"tuzsa-282","title":"(282) EMILIO FERREIRO / CELANOVA Líneas: 32","geometry":{"type":"Point","coordinates":[-0.9112857882652404,41.65430285359305]},"link":"http://www.urbanosdezaragoza.es/frm_esquemaparadatime.php?poste=282","icon":"http://www.zaragoza.es/contenidos/iconos/bus.png"},{"id":"tuzsa-281","title":"(281) EMILIO FERREIRO 15 Líneas: 32","geometry":{"type":"Point","coordinates":[-0.9155466484712285,41.65323645382587]},"link":"http://www.urbanosdezaragoza.es/frm_esquemaparadatime.php?poste=281","icon":"http://www.zaragoza.es/contenidos/iconos/bus.png"},{"id":"tuzsa-280","title":"(280) EMILIO FERREIRO 6 Líneas: 32","geometry":{"type":"Point","coordinates":[-0.9136905020622165,41.65417544542108]},"link":"http://www.urbanosdezaragoza.es/frm_esquemaparadatime.php?poste=280","icon":"http://www.zaragoza.es/contenidos/iconos/bus.png"},{"id":"tuzsa-279","title":"(279) CEJADOR FRAUCA 10 Líneas: Ci2","geometry":{"type":"Point","coordinates":[-0.8909872349134391,41.63526607658482]},"link":"http://www.urbanosdezaragoza.es/frm_esquemaparadatime.php?poste=279","icon":"http://www.zaragoza.es/contenidos/iconos/bus.png"},{"id":"tuzsa-278","title":"(278) 14 DE SEPTIEMBRE 29 Líneas: 25, N6","geometry":{"type":"Point","coordinates":[-0.8241394206629963,41.60442429898154]},"link":"http://www.urbanosdezaragoza.es/frm_esquemaparadatime.php?poste=278","icon":"http://www.zaragoza.es/contenidos/iconos/bus.png"},{"id":"tuzsa-277","title":"(277) CARMEN 19 Líneas: N6, 38, 35","geometry":{"type":"Point","coordinates":[-0.8929247342314947,41.646730868617354]},"link":"http://www.urbanosdezaragoza.es/frm_esquemaparadatime.php?poste=277","icon":"http://www.zaragoza.es/contenidos/iconos/bus.png"},{"id":"tuzsa-275","title":"(275) TERRAZAS DE CUÉLLAR 4 Líneas: 23","geometry":{"type":"Point","coordinates":[-0.8791072970694659,41.632539143602045]},"link":"http://www.urbanosdezaragoza.es/frm_esquemaparadatime.php?poste=275","icon":"http://www.zaragoza.es/contenidos/iconos/bus.png"},{"id":"tuzsa-274","title":"(274) C.S. LAS FUENTES NORTE Líneas: 44","geometry":{"type":"Point","coordinates":[-0.8643263231096473,41.64927407035111]},"link":"http://www.urbanosdezaragoza.es/frm_esquemaparadatime.php?poste=274","icon":"http://www.zaragoza.es/contenidos/iconos/bus.png"},{"id":"tuzsa-273","title":"(273) C.E.M GRANDE COVIÁN Líneas: 50","geometry":{"type":"Point","coordinates":[-0.858468206547997,41.664602169356186]},"link":"http://www.urbanosdezaragoza.es/frm_esquemaparadatime.php?poste=273","icon":"http://www.zaragoza.es/contenidos/iconos/bus.png"},{"id":"tuzsa-271","title":"(271) BIARRITZ 14 Líneas: 22","geometry":{"type":"Point","coordinates":[-0.9201167497512531,41.65569694072115]},"link":"http://www.urbanosdezaragoza.es/frm_esquemaparadatime.php?poste=271","icon":"http://www.zaragoza.es/contenidos/iconos/bus.png"},{"id":"tuzsa-270","title":"(270) BETORE BERGUA 1 Líneas: 39, N1","geometry":{"type":"Point","coordinates":[-0.855903017358627,41.65509304140536]},"link":"http://www.urbanosdezaragoza.es/frm_esquemaparadatime.php?poste=270","icon":"http://www.zaragoza.es/contenidos/iconos/bus.png"},{"id":"rural-270","title":"(270) Avenida de Movera Líneas: 201","geometry":{"type":"Point","coordinates":[-0.8370589883945976,41.664043398258784]},"icon":"http://www.zaragoza.es/contenidos/iconos/bus.png"},{"id":"tuzsa-269","title":"(269) BALBINO ORENSANZ / VELILLA DE EBRO Líneas: 39, N1, 50","geometry":{"type":"Point","coordinates":[-0.8590285453065809,41.6591276147395]},"link":"http://www.urbanosdezaragoza.es/frm_esquemaparadatime.php?poste=269","icon":"http://www.zaragoza.es/contenidos/iconos/bus.png"},{"id":"tuzsa-268","title":"(268) BALBINO ORENSANZ / PARQUE Líneas: 39, N1, 50","geometry":{"type":"Point","coordinates":[-0.858636715847879,41.65689121555611]},"link":"http://www.urbanosdezaragoza.es/frm_esquemaparadatime.php?poste=268","icon":"http://www.zaragoza.es/contenidos/iconos/bus.png"},{"id":"tuzsa-267","title":"(267) BALBINO ORENSANZ 29 Líneas: 50, N1, 39","geometry":{"type":"Point","coordinates":[-0.8588005416927991,41.65754273405294]},"link":"http://www.urbanosdezaragoza.es/frm_esquemaparadatime.php?poste=267","icon":"http://www.zaragoza.es/contenidos/iconos/bus.png"},{"id":"tuzsa-266","title":"(266) BALBINO ORENSANZ 7 Líneas: 50, N1, 39","geometry":{"type":"Point","coordinates":[-0.858915941013667,41.65949928188192]},"link":"http://www.urbanosdezaragoza.es/frm_esquemaparadatime.php?poste=266","icon":"http://www.zaragoza.es/contenidos/iconos/bus.png"},{"id":"tuzsa-265","title":"(265) AV VALENCIA 63 Líneas: 38, 35","geometry":{"type":"Point","coordinates":[-0.8991433651672138,41.645385766144514]},"link":"http://www.urbanosdezaragoza.es/frm_esquemaparadatime.php?poste=265","icon":"http://www.zaragoza.es/contenidos/iconos/bus.png"},{"id":"tuzsa-264","title":"(264) AV VALENCIA 41 Líneas: 41, 38, 35","geometry":{"type":"Point","coordinates":[-0.8971662392077993,41.646182674155654]},"link":"http://www.urbanosdezaragoza.es/frm_esquemaparadatime.php?poste=264","icon":"http://www.zaragoza.es/contenidos/iconos/bus.png"},{"id":"tuzsa-263","title":"(263) AV VALENCIA 38 Líneas: 35, N4, 38, 41","geometry":{"type":"Point","coordinates":[-0.8971810031115064,41.646264002816984]},"link":"http://www.urbanosdezaragoza.es/frm_esquemaparadatime.php?poste=263","icon":"http://www.zaragoza.es/contenidos/iconos/bus.png"},{"id":"tuzsa-262","title":"(262) AV VALENCIA 8 Líneas: N6, 35, N4, 38, 41","geometry":{"type":"Point","coordinates":[-0.8944624253794963,41.647353502999074]},"link":"http://www.urbanosdezaragoza.es/frm_esquemaparadatime.php?poste=262","icon":"http://www.zaragoza.es/contenidos/iconos/bus.png"},{"id":"tuzsa-261","title":"(261) AV VALDEFIERRO 27 Líneas: 24, 36","geometry":{"type":"Point","coordinates":[-0.9281607999537207,41.64195875516808]},"link":"http://www.urbanosdezaragoza.es/frm_esquemaparadatime.php?poste=261","icon":"http://www.zaragoza.es/contenidos/iconos/bus.png"},{"id":"tuzsa-260","title":"(260) AV VALDEFIERRO 15 Líneas: 24, 36","geometry":{"type":"Point","coordinates":[-0.9290312191102061,41.640555930732255]},"link":"http://www.urbanosdezaragoza.es/frm_esquemaparadatime.php?poste=260","icon":"http://www.zaragoza.es/contenidos/iconos/bus.png"},{"id":"tuzsa-259","title":"(259) DALIA Líneas: N3, 36, 24","geometry":{"type":"Point","coordinates":[-0.9265075699529204,41.64346002212845]},"link":"http://www.urbanosdezaragoza.es/frm_esquemaparadatime.php?poste=259","icon":"http://www.zaragoza.es/contenidos/iconos/bus.png"},{"id":"tuzsa-258","title":"(258) AV VALDEFIERRO 1 Líneas: 24, 36","geometry":{"type":"Point","coordinates":[-0.9265801454610709,41.64450608653991]},"link":"http://www.urbanosdezaragoza.es/frm_esquemaparadatime.php?poste=258","icon":"http://www.zaragoza.es/contenidos/iconos/bus.png"},{"id":"tuzsa-257","title":"(257) TENOR FLETA 124 Líneas: 24","geometry":{"type":"Point","coordinates":[-0.8750949725188081,41.63649536468936]},"link":"http://www.urbanosdezaragoza.es/frm_esquemaparadatime.php?poste=257","icon":"http://www.zaragoza.es/contenidos/iconos/bus.png"},{"id":"tuzsa-256","title":"(256) TENOR FLETA 89 Líneas: 23, 24","geometry":{"type":"Point","coordinates":[-0.8774768327378029,41.63784985859206]},"link":"http://www.urbanosdezaragoza.es/frm_esquemaparadatime.php?poste=256","icon":"http://www.zaragoza.es/contenidos/iconos/bus.png"},{"id":"tuzsa-255","title":"(255) TENOR FLETA 82 Líneas: 24, 23","geometry":{"type":"Point","coordinates":[-0.8777665906585501,41.6378372012963]},"link":"http://www.urbanosdezaragoza.es/frm_esquemaparadatime.php?poste=255","icon":"http://www.zaragoza.es/contenidos/iconos/bus.png"},{"id":"tuzsa-254","title":"(254) TENOR FLETA 62 Líneas: 24, 23","geometry":{"type":"Point","coordinates":[-0.8793838127884614,41.63865964903873]},"link":"http://www.urbanosdezaragoza.es/frm_esquemaparadatime.php?poste=254","icon":"http://www.zaragoza.es/contenidos/iconos/bus.png"},{"id":"tuzsa-253","title":"(253) TENOR FLETA 57 Líneas: 23, 24","geometry":{"type":"Point","coordinates":[-0.8796534638941692,41.63897084872225]},"link":"http://www.urbanosdezaragoza.es/frm_esquemaparadatime.php?poste=253","icon":"http://www.zaragoza.es/contenidos/iconos/bus.png"},{"id":"tuzsa-252","title":"(252) TENOR FLETA 34 Líneas: 24, 23","geometry":{"type":"Point","coordinates":[-0.8824676428780724,41.64024766022866]},"link":"http://www.urbanosdezaragoza.es/frm_esquemaparadatime.php?poste=252","icon":"http://www.zaragoza.es/contenidos/iconos/bus.png"},{"id":"tuzsa-251","title":"(251) TENOR FLETA 33 Líneas: 23, 24","geometry":{"type":"Point","coordinates":[-0.8823514043806474,41.640358097518]},"link":"http://www.urbanosdezaragoza.es/frm_esquemaparadatime.php?poste=251","icon":"http://www.zaragoza.es/contenidos/iconos/bus.png"},{"id":"tuzsa-250","title":"(250) TENOR FLETA 3 Líneas: 23","geometry":{"type":"Point","coordinates":[-0.8856972047333265,41.64207235066121]},"link":"http://www.urbanosdezaragoza.es/frm_esquemaparadatime.php?poste=250","icon":"http://www.zaragoza.es/contenidos/iconos/bus.png"},{"id":"tuzsa-249","title":"(249) TENOR FLETA 2 Líneas: 23","geometry":{"type":"Point","coordinates":[-0.8854663460693757,41.64178889890947]},"link":"http://www.urbanosdezaragoza.es/frm_esquemaparadatime.php?poste=249","icon":"http://www.zaragoza.es/contenidos/iconos/bus.png"},{"id":"tuzsa-248","title":"(248) AV SANTA ISABEL 141 Líneas: 32, N1","geometry":{"type":"Point","coordinates":[-0.8288676558178605,41.66690160591595]},"link":"http://www.urbanosdezaragoza.es/frm_esquemaparadatime.php?poste=248","icon":"http://www.zaragoza.es/contenidos/iconos/bus.png"},{"id":"tuzsa-247","title":"(247) AV SANTA ISABEL 124 Líneas: 32, N1","geometry":{"type":"Point","coordinates":[-0.8290529756998323,41.66685557518424]},"link":"http://www.urbanosdezaragoza.es/frm_esquemaparadatime.php?poste=247","icon":"http://www.zaragoza.es/contenidos/iconos/bus.png"},{"id":"tuzsa-244","title":"(244) AV SANTA ISABEL 59 Líneas: 32, N1","geometry":{"type":"Point","coordinates":[-0.8351316668085454,41.66750615139868]},"link":"http://www.urbanosdezaragoza.es/frm_esquemaparadatime.php?poste=244","icon":"http://www.zaragoza.es/contenidos/iconos/bus.png"},{"id":"tuzsa-243","title":"(243) AV SANTA ISABEL 52 Líneas: 32, N1","geometry":{"type":"Point","coordinates":[-0.8342525716859053,41.667340965462174]},"link":"http://www.urbanosdezaragoza.es/frm_esquemaparadatime.php?poste=243","icon":"http://www.zaragoza.es/contenidos/iconos/bus.png"},{"id":"tuzsa-240","title":"(240) AV STA ISABEL 9 / AV DE LA INDUSTRIA Líneas: N7, 32, N1, 28","geometry":{"type":"Point","coordinates":[-0.8394638008541191,41.67003290904381]},