[{"id":"tuzsa-688","title":"(688) P. Reyes De Aragón N.º 24 Líneas: 58","geometry":{"type":"Point","coordinates":[-0.9072975810322448,41.62702649728611]},"link":"http://www.urbanosdezaragoza.es/frm_esquemaparadatime.php?poste=688","icon":"http://www.zaragoza.es/contenidos/iconos/bus.png"},{"id":"tuzsa-687","title":"(687) P. Reyes De Aragon N.º 18 / Ies V. Del Pilar Líneas: 58","geometry":{"type":"Point","coordinates":[-0.9064746463614501,41.624644767534534]},"link":"http://www.urbanosdezaragoza.es/frm_esquemaparadatime.php?poste=687","icon":"http://www.zaragoza.es/contenidos/iconos/bus.png"},{"id":"tuzsa-686","title":"(686) P. Infantes De España N.º 6 Líneas: 58","geometry":{"type":"Point","coordinates":[-0.9052270583211053,41.6222680740005]},"link":"http://www.urbanosdezaragoza.es/frm_esquemaparadatime.php?poste=686","icon":"http://www.zaragoza.es/contenidos/iconos/bus.png"},{"id":"tuzsa-685","title":"(685) P. Mariano Renovales / Av. De Los Bearneses Líneas: Ci2, 42","geometry":{"type":"Point","coordinates":[-0.8930639938465242,41.63498438035375]},"link":"http://www.urbanosdezaragoza.es/frm_esquemaparadatime.php?poste=685","icon":"http://www.zaragoza.es/contenidos/iconos/bus.png"},{"id":"tuzsa-682","title":"(682) P. Pamplona / Puerta Del Carmen Líneas: 22, 34, 51","geometry":{"type":"Point","coordinates":[-0.8871529901893495,41.649347193517556]},"link":"http://www.urbanosdezaragoza.es/frm_esquemaparadatime.php?poste=682","icon":"http://www.zaragoza.es/contenidos/iconos/bus.png"},{"id":"tuzsa-681","title":"(681) P. Pamplona N.º 1 / Plaza Paraíso Líneas: 33, 34, 38","geometry":{"type":"Point","coordinates":[-0.8866396721239306,41.64806162074327]},"link":"http://www.urbanosdezaragoza.es/frm_esquemaparadatime.php?poste=681","icon":"http://www.zaragoza.es/contenidos/iconos/bus.png"},{"id":"tuzsa-679","title":"(679) P. María Agustín N.º 67 Líneas: 23, 51, 31, 21","geometry":{"type":"Point","coordinates":[-0.8937041213079897,41.65485251972741]},"link":"http://www.urbanosdezaragoza.es/frm_esquemaparadatime.php?poste=679","icon":"http://www.zaragoza.es/contenidos/iconos/bus.png"},{"id":"tuzsa-678","title":"(678) P. María Agustín N.º 62 Líneas: 23","geometry":{"type":"Point","coordinates":[-0.8935543166283779,41.65556479450346]},"link":"http://www.urbanosdezaragoza.es/frm_esquemaparadatime.php?poste=678","icon":"http://www.zaragoza.es/contenidos/iconos/bus.png"},{"id":"tuzsa-676","title":"(676) P. María Agustín N.º 37 Líneas: 22, 23, 51, 21","geometry":{"type":"Point","coordinates":[-0.8910256007120738,41.65144340196791]},"link":"http://www.urbanosdezaragoza.es/frm_esquemaparadatime.php?poste=676","icon":"http://www.zaragoza.es/contenidos/iconos/bus.png"},{"id":"tuzsa-674","title":"(674) P. Mª Agustín N.º 12 / C.M.E. Ramón Y Cajal Líneas: 22, 23, 51, 21","geometry":{"type":"Point","coordinates":[-0.8895439768151937,41.65085597671952]},"link":"http://www.urbanosdezaragoza.es/frm_esquemaparadatime.php?poste=674","icon":"http://www.zaragoza.es/contenidos/iconos/bus.png"},{"id":"tuzsa-673","title":"(673) P. Mª Agustín N.º 7 / Puerta Del Carmen Líneas: 51, 21","geometry":{"type":"Point","coordinates":[-0.888677349247893,41.65010601774239]},"link":"http://www.urbanosdezaragoza.es/frm_esquemaparadatime.php?poste=673","icon":"http://www.zaragoza.es/contenidos/iconos/bus.png"},{"id":"tuzsa-671","title":"(671) P. Reyes De Aragón N.º 14 Líneas: 58","geometry":{"type":"Point","coordinates":[-0.9045779390306128,41.622156799297755]},"link":"http://www.urbanosdezaragoza.es/frm_esquemaparadatime.php?poste=671","icon":"http://www.zaragoza.es/contenidos/iconos/bus.png"},{"id":"tuzsa-670","title":"(670) P. Infantes De  España N.º 1 / Vía Ibérica Líneas: 58","geometry":{"type":"Point","coordinates":[-0.9078379796205713,41.62728672404574]},"link":"http://www.urbanosdezaragoza.es/frm_esquemaparadatime.php?poste=670","icon":"http://www.zaragoza.es/contenidos/iconos/bus.png"},{"id":"tuzsa-669","title":"(669) P. Pamplona N.º 4 / Plaza Paraiso Líneas: 33, 38, 21","geometry":{"type":"Point","coordinates":[-0.8864846456153599,41.64837012083471]},"link":"http://www.urbanosdezaragoza.es/frm_esquemaparadatime.php?poste=669","icon":"http://www.zaragoza.es/contenidos/iconos/bus.png"},{"id":"tuzsa-666","title":"(666) P. Independencia N.º 25 Líneas: 38, 21","geometry":{"type":"Point","coordinates":[-0.8826917203410357,41.65025338395462]},"link":"http://www.urbanosdezaragoza.es/frm_esquemaparadatime.php?poste=666","icon":"http://www.zaragoza.es/contenidos/iconos/bus.png"},{"id":"tuzsa-664","title":"(664) P. Independencia N.º 24 Líneas: 38, 21","geometry":{"type":"Point","coordinates":[-0.883001124306886,41.65028781954075]},"link":"http://www.urbanosdezaragoza.es/frm_esquemaparadatime.php?poste=664","icon":"http://www.zaragoza.es/contenidos/iconos/bus.png"},{"id":"tuzsa-659","title":"(659) P. Echegaray Y Caballero / Hospedería Líneas: 29","geometry":{"type":"Point","coordinates":[-0.8792719007995677,41.65741876090747]},"link":"http://www.urbanosdezaragoza.es/frm_esquemaparadatime.php?poste=659","icon":"http://www.zaragoza.es/contenidos/iconos/bus.png"},{"id":"tuzsa-653","title":"(653) P. Echegaray Y Caballero / Colegio Líneas: 36","geometry":{"type":"Point","coordinates":[-0.8851840731462374,41.658035141557896]},"link":"http://www.urbanosdezaragoza.es/frm_esquemaparadatime.php?poste=653","icon":"http://www.zaragoza.es/contenidos/iconos/bus.png"},{"id":"tuzsa-652","title":"(652) P. Echegaray Y Caballero N.º 12 Líneas: 36","geometry":{"type":"Point","coordinates":[-0.8896177617492038,41.65867953254813]},"link":"http://www.urbanosdezaragoza.es/frm_esquemaparadatime.php?poste=652","icon":"http://www.zaragoza.es/contenidos/iconos/bus.png"},{"id":"tuzsa-650","title":"(650) P. Duque De Alba / Velódromo (Dir.Cementerio) Líneas: 34","geometry":{"type":"Point","coordinates":[-0.8979697416948477,41.62267188747669]},"link":"http://www.urbanosdezaragoza.es/frm_esquemaparadatime.php?poste=650","icon":"http://www.zaragoza.es/contenidos/iconos/bus.png"},{"id":"tuzsa-649","title":"(649) P. Duque De Alba / Velódromo (Dir.P.Atracc.) Líneas: 34","geometry":{"type":"Point","coordinates":[-0.8978908635814513,41.622757356407355]},"link":"http://www.urbanosdezaragoza.es/frm_esquemaparadatime.php?poste=649","icon":"http://www.zaragoza.es/contenidos/iconos/bus.png"},{"id":"tuzsa-648","title":"(648) P. Duque De Alba / Monumento A La Legión Líneas: 34","geometry":{"type":"Point","coordinates":[-0.9002589484371112,41.62243979011734]},"link":"http://www.urbanosdezaragoza.es/frm_esquemaparadatime.php?poste=648","icon":"http://www.zaragoza.es/contenidos/iconos/bus.png"},{"id":"tuzsa-647","title":"(647) P. Duque De Alba / Glorieta Líneas: 34","geometry":{"type":"Point","coordinates":[-0.9019060931926098,41.62015459176121]},"link":"http://www.urbanosdezaragoza.es/frm_esquemaparadatime.php?poste=647","icon":"http://www.zaragoza.es/contenidos/iconos/bus.png"},{"id":"tuzsa-646","title":"(646) P.Duque De Alba / Sarrión Líneas: 34","geometry":{"type":"Point","coordinates":[-0.8941809608879405,41.623121607027635]},"link":"http://www.urbanosdezaragoza.es/frm_esquemaparadatime.php?poste=646","icon":"http://www.zaragoza.es/contenidos/iconos/bus.png"},{"id":"tuzsa-644","title":"(644) P. Del Canal N.º 47 Líneas: 23","geometry":{"type":"Point","coordinates":[-0.8803228831635471,41.63032149608325]},"link":"http://www.urbanosdezaragoza.es/frm_esquemaparadatime.php?poste=644","icon":"http://www.zaragoza.es/contenidos/iconos/bus.png"},{"id":"tuzsa-643","title":"(643) Ctra. Castellón / Rotonda Valmadrid Líneas: 25","geometry":{"type":"Point","coordinates":[-0.8287661170843406,41.605794125564515]},"link":"http://www.urbanosdezaragoza.es/frm_esquemaparadatime.php?poste=643","icon":"http://www.zaragoza.es/contenidos/iconos/bus.png"},{"id":"tuzsa-642","title":"(642) PS PLÁTANOS 60 Líneas: 25, N6","geometry":{"type":"Point","coordinates":[-0.8236098148243396,41.60435121740205]},"link":"http://www.urbanosdezaragoza.es/frm_esquemaparadatime.php?poste=642","icon":"http://www.zaragoza.es/contenidos/iconos/bus.png"},{"id":"tuzsa-641","title":"(641) P. De Los Plátanos N.º 10 Líneas: 25","geometry":{"type":"Point","coordinates":[-0.8235459626840848,41.6061604894595]},"link":"http://www.urbanosdezaragoza.es/frm_esquemaparadatime.php?poste=641","icon":"http://www.zaragoza.es/contenidos/iconos/bus.png"},{"id":"tuzsa-640","title":"(640) P. De Cuéllar / Parque Pignatelli Líneas: 33, 34, 31","geometry":{"type":"Point","coordinates":[-0.8854708223833657,41.638573489281235]},"link":"http://www.urbanosdezaragoza.es/frm_esquemaparadatime.php?poste=640","icon":"http://www.zaragoza.es/contenidos/iconos/bus.png"},{"id":"tuzsa-639","title":"(639) P. De Cuéllar / Lapuyade Líneas: 33, 34, 31","geometry":{"type":"Point","coordinates":[-0.8846551900827841,41.6366165796884]},"link":"http://www.urbanosdezaragoza.es/frm_esquemaparadatime.php?poste=639","icon":"http://www.zaragoza.es/contenidos/iconos/bus.png"},{"id":"tuzsa-638","title":"(638) P. De Cuéllar / San Fernando Líneas: 33, 34, 39, 31","geometry":{"type":"Point","coordinates":[-0.884699703863752,41.63459247242311]},"link":"http://www.urbanosdezaragoza.es/frm_esquemaparadatime.php?poste=638","icon":"http://www.zaragoza.es/contenidos/iconos/bus.png"},{"id":"tuzsa-637","title":"(637) P. De Cuéllar N.º 47 Líneas: 33, 34, 31","geometry":{"type":"Point","coordinates":[-0.8844939457890284,41.63607763350219]},"link":"http://www.urbanosdezaragoza.es/frm_esquemaparadatime.php?poste=637","icon":"http://www.zaragoza.es/contenidos/iconos/bus.png"},{"id":"tuzsa-636","title":"(636) P. De Cuéllar N.º 29 Líneas: 33, 34, 31","geometry":{"type":"Point","coordinates":[-0.884247931973724,41.63787529743025]},"link":"http://www.urbanosdezaragoza.es/frm_esquemaparadatime.php?poste=636","icon":"http://www.zaragoza.es/contenidos/iconos/bus.png"},{"id":"tuzsa-635","title":"(635) P. De Cuéllar N.º 20 / Iglesia Líneas: 33, 34, 39, 31","geometry":{"type":"Point","coordinates":[-0.8849521873534003,41.63434629265447]},"link":"http://www.urbanosdezaragoza.es/frm_esquemaparadatime.php?poste=635","icon":"http://www.zaragoza.es/contenidos/iconos/bus.png"},{"id":"tuzsa-633","title":"(633) P. De La Constitución N.º 16 / San Ignacio De Loyola Líneas: 25, 40, 51","geometry":{"type":"Point","coordinates":[-0.8817790264409375,41.64773581621981]},"link":"http://www.urbanosdezaragoza.es/frm_esquemaparadatime.php?poste=633","icon":"http://www.zaragoza.es/contenidos/iconos/bus.png"},{"id":"tuzsa-632","title":"(632) P. De La Constitución N.º 11 / Plaza Aragón Líneas: 25, 51, 30, 32","geometry":{"type":"Point","coordinates":[-0.883673686123707,41.64800104801868]},"link":"http://www.urbanosdezaragoza.es/frm_esquemaparadatime.php?poste=632","icon":"http://www.zaragoza.es/contenidos/iconos/bus.png"},{"id":"tuzsa-631","title":"(631) P. Cristobal Colón N.º 14 Líneas: 42","geometry":{"type":"Point","coordinates":[-0.8887291873101404,41.633823622888784]},"link":"http://www.urbanosdezaragoza.es/frm_esquemaparadatime.php?poste=631","icon":"http://www.zaragoza.es/contenidos/iconos/bus.png"},{"id":"tuzsa-630","title":"(630) P. Cristobal Colón N.º 2 Líneas: 42","geometry":{"type":"Point","coordinates":[-0.8856937065571757,41.63363933952637]},"link":"http://www.urbanosdezaragoza.es/frm_esquemaparadatime.php?poste=630","icon":"http://www.zaragoza.es/contenidos/iconos/bus.png"},{"id":"tuzsa-628","title":"(628) P. Calanda N.º 20 Líneas: 24","geometry":{"type":"Point","coordinates":[-0.904254289683282,41.65297759543439]},"link":"http://www.urbanosdezaragoza.es/frm_esquemaparadatime.php?poste=628","icon":"http://www.zaragoza.es/contenidos/iconos/bus.png"},{"id":"tuzsa-627","title":"(627) Las Pleyades / Berenice Líneas: 24, 36","geometry":{"type":"Point","coordinates":[-0.9352510019681072,41.63961029287055]},"link":"http://www.urbanosdezaragoza.es/frm_esquemaparadatime.php?poste=627","icon":"http://www.zaragoza.es/contenidos/iconos/bus.png"},{"id":"tuzsa-626","title":"(626) Valle De Oza / Peña Oroel Líneas: 50","geometry":{"type":"Point","coordinates":[-0.8754608954519794,41.6639356183739]},"link":"http://www.urbanosdezaragoza.es/frm_esquemaparadatime.php?poste=626","icon":"http://www.zaragoza.es/contenidos/iconos/bus.png"},{"id":"tuzsa-625","title":"(625) Pedro Porter N.º 5 Líneas: 53, 21","geometry":{"type":"Point","coordinates":[-0.9267613242477828,41.65280956228486]},"link":"http://www.urbanosdezaragoza.es/frm_esquemaparadatime.php?poste=625","icon":"http://www.zaragoza.es/contenidos/iconos/bus.png"},{"id":"tuzsa-623","title":"(623) Pedro Iii / Asín Y Palacios Líneas: 35, 42, 53","geometry":{"type":"Point","coordinates":[-0.9052941421280708,41.63687685685791]},"link":"http://www.urbanosdezaragoza.es/frm_esquemaparadatime.php?poste=623","icon":"http://www.zaragoza.es/contenidos/iconos/bus.png"},{"id":"tuzsa-620","title":"(620) Pascuala Perié N.º 2 Líneas: 39","geometry":{"type":"Point","coordinates":[-0.8635113298719526,41.662453162163615]},"link":"http://www.urbanosdezaragoza.es/frm_esquemaparadatime.php?poste=620","icon":"http://www.zaragoza.es/contenidos/iconos/bus.png"},{"id":"tuzsa-619","title":"(619) Sigües / Parque De Delicias Líneas: 33","geometry":{"type":"Point","coordinates":[-0.9127752314277944,41.64634280813792]},"link":"http://www.urbanosdezaragoza.es/frm_esquemaparadatime.php?poste=619","icon":"http://www.zaragoza.es/contenidos/iconos/bus.png"},{"id":"tuzsa-617","title":"(617) Parque De Atracciones Líneas: 34","geometry":{"type":"Point","coordinates":[-0.9003233929851797,41.62227380762054]},"link":"http://www.urbanosdezaragoza.es/frm_esquemaparadatime.php?poste=617","icon":"http://www.zaragoza.es/contenidos/iconos/bus.png"},{"id":"tuzsa-616","title":"(616) Pablo Ruiz Picasso N.º 35 Líneas: 44, 50","geometry":{"type":"Point","coordinates":[-0.8884385196147807,41.67294756433076]},"link":"http://www.urbanosdezaragoza.es/frm_esquemaparadatime.php?poste=616","icon":"http://www.zaragoza.es/contenidos/iconos/bus.png"},{"id":"tuzsa-615","title":"(615) Pablo Ruiz Picasso N.º 34 Líneas: 44, 50","geometry":{"type":"Point","coordinates":[-0.8883028263826005,41.673225168707916]},"link":"http://www.urbanosdezaragoza.es/frm_esquemaparadatime.php?poste=615","icon":"http://www.zaragoza.es/contenidos/iconos/bus.png"},{"id":"tuzsa-612","title":"(612) Pablo Ruiz Picasso N.º 5 Líneas: 44, 50","geometry":{"type":"Point","coordinates":[-0.8788371719010639,41.672901442572204]},"link":"http://www.urbanosdezaragoza.es/frm_esquemaparadatime.php?poste=612","icon":"http://www.zaragoza.es/contenidos/iconos/bus.png"},{"id":"tuzsa-611","title":"(611) Pablo Ruiz Picasso N.º 2 Líneas: 44, 50","geometry":{"type":"Point","coordinates":[-0.878251468381537,41.67316387506776]},"link":"http://www.urbanosdezaragoza.es/frm_esquemaparadatime.php?poste=611","icon":"http://www.zaragoza.es/contenidos/iconos/bus.png"},{"id":"tuzsa-610","title":"(610) Pablo Parellada N.º 27 Líneas: 23, C4, 31","geometry":{"type":"Point","coordinates":[-0.8806435538895412,41.62679786215621]},"link":"http://www.urbanosdezaragoza.es/frm_esquemaparadatime.php?poste=610","icon":"http://www.zaragoza.es/contenidos/iconos/bus.png"},{"id":"tuzsa-609","title":"(609) Oviedo N.º 175 Líneas: 23, C4, 31","geometry":{"type":"Point","coordinates":[-0.8779261030638016,41.62571220047927]},"link":"http://www.urbanosdezaragoza.es/frm_esquemaparadatime.php?poste=609","icon":"http://www.zaragoza.es/contenidos/iconos/bus.png"},{"id":"tuzsa-608","title":"(608) Numancia / Maria Blasco Líneas: 50","geometry":{"type":"Point","coordinates":[-0.8578961102907287,41.66077223210478]},"link":"http://www.urbanosdezaragoza.es/frm_esquemaparadatime.php?poste=608","icon":"http://www.zaragoza.es/contenidos/iconos/bus.png"},{"id":"tuzsa-607","title":"(607) Monte Perdido N.º 38 /J.L Lacruz Líneas: 36","geometry":{"type":"Point","coordinates":[-0.8727003103404388,41.67296568562209]},"link":"http://www.urbanosdezaragoza.es/frm_esquemaparadatime.php?poste=607","icon":"http://www.zaragoza.es/contenidos/iconos/bus.png"},{"id":"tuzsa-606","title":"(606) Monte Perdido / María Domínguez Remón Líneas: 36","geometry":{"type":"Point","coordinates":[-0.8728498322681318,41.673134354272285]},"link":"http://www.urbanosdezaragoza.es/frm_esquemaparadatime.php?poste=606","icon":"http://www.zaragoza.es/contenidos/iconos/bus.png"},{"id":"tuzsa-605","title":"(605) Miguel Servet N.º 147 Líneas: 38","geometry":{"type":"Point","coordinates":[-0.8635080482533822,41.63650372313449]},"link":"http://www.urbanosdezaragoza.es/frm_esquemaparadatime.php?poste=605","icon":"http://www.zaragoza.es/contenidos/iconos/bus.png"},{"id":"tuzsa-604","title":"(604) Nuestra Señora De Los ángeles/ Vía Hispanidad Líneas: 38","geometry":{"type":"Point","coordinates":[-0.916510314783637,41.643873236365444]},"link":"http://www.urbanosdezaragoza.es/frm_esquemaparadatime.php?poste=604","icon":"http://www.zaragoza.es/contenidos/iconos/bus.png"},{"id":"tuzsa-602","title":"(602) Miguel Servet / Belchite Líneas: 38","geometry":{"type":"Point","coordinates":[-0.8676171804743862,41.6413262412489]},"link":"http://www.urbanosdezaragoza.es/frm_esquemaparadatime.php?poste=602","icon":"http://www.zaragoza.es/contenidos/iconos/bus.png"},{"id":"tuzsa-600","title":"(600) Miguel Servet N.º 204 Líneas: 38","geometry":{"type":"Point","coordinates":[-0.8646710218530526,41.63769601598225]},"link":"http://www.urbanosdezaragoza.es/frm_esquemaparadatime.php?poste=600","icon":"http://www.zaragoza.es/contenidos/iconos/bus.png"},{"id":"tuzsa-599","title":"(599) Miguel Servet N.º 199 Líneas: 25, 38","geometry":{"type":"Point","coordinates":[-0.8597739800471892,41.632749731167095]},"link":"http://www.urbanosdezaragoza.es/frm_esquemaparadatime.php?poste=599","icon":"http://www.zaragoza.es/contenidos/iconos/bus.png"},{"id":"tuzsa-594","title":"(594) Miguel Servet N.º 123 / Padre Chaminade Líneas: 38","geometry":{"type":"Point","coordinates":[-0.8653308612826599,41.63883382233138]},"link":"http://www.urbanosdezaragoza.es/frm_esquemaparadatime.php?poste=594","icon":"http://www.zaragoza.es/contenidos/iconos/bus.png"},{"id":"tuzsa-593","title":"(593) Miguel Servet N.º 122 Líneas: 38","geometry":{"type":"Point","coordinates":[-0.8685428523791957,41.64240105662412]},"link":"http://www.urbanosdezaragoza.es/frm_esquemaparadatime.php?poste=593","icon":"http://www.zaragoza.es/contenidos/iconos/bus.png"},{"id":"tuzsa-591","title":"(591) Miguel Servet / Francisco Quevedo Líneas: 38","geometry":{"type":"Point","coordinates":[-0.8669575511478581,41.640831243281895]},"link":"http://www.urbanosdezaragoza.es/frm_esquemaparadatime.php?poste=591","icon":"http://www.zaragoza.es/contenidos/iconos/bus.png"},{"id":"tuzsa-590","title":"(590) Miguel Servet N.º 86 Líneas: 38","geometry":{"type":"Point","coordinates":[-0.8702122147934818,41.644271511833956]},"link":"http://www.urbanosdezaragoza.es/frm_esquemaparadatime.php?poste=590","icon":"http://www.zaragoza.es/contenidos/iconos/bus.png"},{"id":"tuzsa-589","title":"(589) Miguel Servet N.º 71 / Minas Líneas: 38","geometry":{"type":"Point","coordinates":[-0.8691168692736548,41.64323562149919]},"link":"http://www.urbanosdezaragoza.es/frm_esquemaparadatime.php?poste=589","icon":"http://www.zaragoza.es/contenidos/iconos/bus.png"},{"id":"tuzsa-588","title":"(588) Miguel Servet N.º 60 Líneas: 38","geometry":{"type":"Point","coordinates":[-0.8717608200286108,41.64568803066371]},"link":"http://www.urbanosdezaragoza.es/frm_esquemaparadatime.php?poste=588","icon":"http://www.zaragoza.es/contenidos/iconos/bus.png"},{"id":"tuzsa-587","title":"(587) Miguel Servet N.º 57 Líneas: 38","geometry":{"type":"Point","coordinates":[-0.8706089660316089,41.64480962084709]},"link":"http://www.urbanosdezaragoza.es/frm_esquemaparadatime.php?poste=587","icon":"http://www.zaragoza.es/contenidos/iconos/bus.png"},{"id":"tuzsa-586","title":"(586) Miguel Servet N.º 37 Líneas: 38","geometry":{"type":"Point","coordinates":[-0.871774900812988,41.64586932147008]},"link":"http://www.urbanosdezaragoza.es/frm_esquemaparadatime.php?poste=586","icon":"http://www.zaragoza.es/contenidos/iconos/bus.png"},{"id":"tuzsa-585","title":"(585) Miguel Servet N.º 28 Líneas: 38, 39, 29, 40","geometry":{"type":"Point","coordinates":[-0.8742630175089926,41.647524234892096]},"link":"http://www.urbanosdezaragoza.es/frm_esquemaparadatime.php?poste=585","icon":"http://www.zaragoza.es/contenidos/iconos/bus.png"},{"id":"tuzsa-584","title":"(584) Miguel Servet N.º 13 Líneas: 38, 39, 40","geometry":{"type":"Point","coordinates":[-0.8741126089586577,41.647573867839505]},"link":"http://www.urbanosdezaragoza.es/frm_esquemaparadatime.php?poste=584","icon":"http://www.zaragoza.es/contenidos/iconos/bus.png"},{"id":"tuzsa-583","title":"(583) Melilla / Escultor Salas Líneas: 40","geometry":{"type":"Point","coordinates":[-0.8767806831083668,41.6327237415613]},"link":"http://www.urbanosdezaragoza.es/frm_esquemaparadatime.php?poste=583","icon":"http://www.zaragoza.es/contenidos/iconos/bus.png"},{"id":"tuzsa-582","title":"(582) Melilla / Joaquín Sorolla Líneas: 40","geometry":{"type":"Point","coordinates":[-0.8782969540060325,41.63364403963054]},"link":"http://www.urbanosdezaragoza.es/frm_esquemaparadatime.php?poste=582","icon":"http://www.zaragoza.es/contenidos/iconos/bus.png"},{"id":"tuzsa-581","title":"(581) Marqués De La Cadena / Puente De La Unión Líneas: 44, Ci2","geometry":{"type":"Point","coordinates":[-0.8609899157027886,41.654535583500085]},"link":"http://www.urbanosdezaragoza.es/frm_esquemaparadatime.php?poste=581","icon":"http://www.zaragoza.es/contenidos/iconos/bus.png"},{"id":"tuzsa-580","title":"(580) Marqués De La Cadena / Plaza Mozart Líneas: Ci2","geometry":{"type":"Point","coordinates":[-0.8655588484495925,41.66298443622484]},"link":"http://www.urbanosdezaragoza.es/frm_esquemaparadatime.php?poste=580","icon":"http://www.zaragoza.es/contenidos/iconos/bus.png"},{"id":"tuzsa-576","title":"(576) Marqués De La Cadena N.º 57 / Plaza Mozart Líneas: Ci1","geometry":{"type":"Point","coordinates":[-0.8658336193139664,41.662905423861666]},"link":"http://www.urbanosdezaragoza.es/frm_esquemaparadatime.php?poste=576","icon":"http://www.zaragoza.es/contenidos/iconos/bus.png"},{"id":"tuzsa-575","title":"(575) Mariano Baselga N.º 11 Líneas: 36","geometry":{"type":"Point","coordinates":[-0.8776730339288432,41.661099963488525]},"link":"http://www.urbanosdezaragoza.es/frm_esquemaparadatime.php?poste=575","icon":"http://www.zaragoza.es/contenidos/iconos/bus.png"},{"id":"tuzsa-574","title":"(574) Mariano Barbasán N.º 13 Líneas: 24","geometry":{"type":"Point","coordinates":[-0.891259691804574,41.642152573016034]},"link":"http://www.urbanosdezaragoza.es/frm_esquemaparadatime.php?poste=574","icon":"http://www.zaragoza.es/contenidos/iconos/bus.png"},{"id":"tuzsa-565","title":"(565) María Zambrano N.º 48 Líneas: 44, 43","geometry":{"type":"Point","coordinates":[-0.8893322123999315,41.67444735672866]},"link":"http://www.urbanosdezaragoza.es/frm_esquemaparadatime.php?poste=565","icon":"http://www.zaragoza.es/contenidos/iconos/bus.png"},{"id":"tuzsa-561","title":"(561) María Zambrano N.º 16 / Pablo Neruda Líneas: 50, Ci2, 43","geometry":{"type":"Point","coordinates":[-0.8886337374067236,41.66925626419147]},"link":"http://www.urbanosdezaragoza.es/frm_esquemaparadatime.php?poste=561","icon":"http://www.zaragoza.es/contenidos/iconos/bus.png"},{"id":"tuzsa-560","title":"(560) Manuel Lasala N.º 44 Líneas: Ci2, 42","geometry":{"type":"Point","coordinates":[-0.8971365527144028,41.637505556103015]},"link":"http://www.urbanosdezaragoza.es/frm_esquemaparadatime.php?poste=560","icon":"http://www.zaragoza.es/contenidos/iconos/bus.png"},{"id":"tuzsa-559","title":"(559) Manuel De Falla N.º 4 Líneas: 32","geometry":{"type":"Point","coordinates":[-0.9193700594575618,41.65529289294404]},"link":"http://www.urbanosdezaragoza.es/frm_esquemaparadatime.php?poste=559","icon":"http://www.zaragoza.es/contenidos/iconos/bus.png"},{"id":"tuzsa-558","title":"(558) Luis Vives N.º 9 Líneas: Ci1, 42","geometry":{"type":"Point","coordinates":[-0.8957592840480307,41.638426096796856]},"link":"http://www.urbanosdezaragoza.es/frm_esquemaparadatime.php?poste=558","icon":"http://www.zaragoza.es/contenidos/iconos/bus.png"},{"id":"tuzsa-556","title":"(556) Lugo N.º 134 Líneas: 42, 31","geometry":{"type":"Point","coordinates":[-0.8801102441356158,41.626379843965964]},"link":"http://www.urbanosdezaragoza.es/frm_esquemaparadatime.php?poste=556","icon":"http://www.zaragoza.es/contenidos/iconos/bus.png"},{"id":"tuzsa-555","title":"(555) L. GRACIA / ROTONDA JUSLIBOL Líneas: 43, N2","geometry":{"type":"Point","coordinates":[-0.889287830613576,41.686918545671446]},"link":"http://www.urbanosdezaragoza.es/frm_esquemaparadatime.php?poste=555","icon":"http://www.zaragoza.es/contenidos/iconos/bus.png"},{"id":"tuzsa-554","title":"(554) Luciano Gracia / Rotonda De Juslibol Líneas: 43","geometry":{"type":"Point","coordinates":[-0.8898783482387683,41.68624329216182]},"link":"http://www.urbanosdezaragoza.es/frm_esquemaparadatime.php?poste=554","icon":"http://www.zaragoza.es/contenidos/iconos/bus.png"},{"id":"tuzsa-552","title":"(552) Luciano Gracia / Campus Río Ebro Líneas: 43","geometry":{"type":"Point","coordinates":[-0.8900624748122309,41.683544840910585]},"link":"http://www.urbanosdezaragoza.es/frm_esquemaparadatime.php?poste=552","icon":"http://www.zaragoza.es/contenidos/iconos/bus.png"},{"id":"tuzsa-551","title":"(551) López De Luna N.º 13 Líneas: 38","geometry":{"type":"Point","coordinates":[-0.9028057995521381,41.645616364387735]},"link":"http://www.urbanosdezaragoza.es/frm_esquemaparadatime.php?poste=551","icon":"http://www.zaragoza.es/contenidos/iconos/bus.png"},{"id":"tuzsa-550","title":"(550) Lasierra Purroy N.º 104 Líneas: C4, 42, 31","geometry":{"type":"Point","coordinates":[-0.8835475261242479,41.6271902455238]},"link":"http://www.urbanosdezaragoza.es/frm_esquemaparadatime.php?poste=550","icon":"http://www.zaragoza.es/contenidos/iconos/bus.png"},{"id":"tuzsa-549","title":"(549) Lapuyade N.º 43 Líneas: 39","geometry":{"type":"Point","coordinates":[-0.8813803951446054,41.63478544136715]},"link":"http://www.urbanosdezaragoza.es/frm_esquemaparadatime.php?poste=549","icon":"http://www.zaragoza.es/contenidos/iconos/bus.png"},{"id":"tuzsa-548","title":"(548) Lapuyade N.º 3 Líneas: 39","geometry":{"type":"Point","coordinates":[-0.8840488648242886,41.63620335919081]},"link":"http://www.urbanosdezaragoza.es/frm_esquemaparadatime.php?poste=548","icon":"http://www.zaragoza.es/contenidos/iconos/bus.png"},{"id":"tuzsa-547","title":"(547) Av. Puerta De Sancho N.º 8 Líneas: 42","geometry":{"type":"Point","coordinates":[-0.9026473610979731,41.65968743213383]},"link":"http://www.urbanosdezaragoza.es/frm_esquemaparadatime.php?poste=547","icon":"http://www.zaragoza.es/contenidos/iconos/bus.png"},{"id":"tuzsa-546","title":"(546) Ctra. Peñaflor (Terminal) Líneas: 28","geometry":{"type":"Point","coordinates":[-0.7948278792260928,41.76243932842596]},"link":"http://www.urbanosdezaragoza.es/frm_esquemaparadatime.php?poste=546","icon":"http://www.zaragoza.es/contenidos/iconos/bus.png"},{"id":"tuzsa-545","title":"(545) La Salud / San Viator Líneas: 42","geometry":{"type":"Point","coordinates":[-0.8754968224030677,41.62719118029841]},"link":"http://www.urbanosdezaragoza.es/frm_esquemaparadatime.php?poste=545","icon":"http://www.zaragoza.es/contenidos/iconos/bus.png"},{"id":"tuzsa-544","title":"(544) Av. Juan Pablo Ii / Centro Comercial Líneas: 53","geometry":{"type":"Point","coordinates":[-0.9104123416224231,41.64099033144462]},"link":"http://www.urbanosdezaragoza.es/frm_esquemaparadatime.php?poste=544","icon":"http://www.zaragoza.es/contenidos/iconos/bus.png"},{"id":"tuzsa-543","title":"(543) Av. Juan Pablo Ii N.º 60 Líneas: 35, 42, 53","geometry":{"type":"Point","coordinates":[-0.9081031609815535,41.63775864127026]},"link":"http://www.urbanosdezaragoza.es/frm_esquemaparadatime.php?poste=543","icon":"http://www.zaragoza.es/contenidos/iconos/bus.png"},{"id":"tuzsa-542","title":"(542) Juan Pablo Bonet N.º 23 Líneas: 24","geometry":{"type":"Point","coordinates":[-0.8887166212084207,41.64049665489905]},"link":"http://www.urbanosdezaragoza.es/frm_esquemaparadatime.php?poste=542","icon":"http://www.zaragoza.es/contenidos/iconos/bus.png"},{"id":"tuzsa-541","title":"(541) Juan Pablo Bonet N.º 20 Líneas: 24","geometry":{"type":"Point","coordinates":[-0.8886477290474394,41.64063922162452]},"link":"http://www.urbanosdezaragoza.es/frm_esquemaparadatime.php?poste=541","icon":"http://www.zaragoza.es/contenidos/iconos/bus.png"},{"id":"tuzsa-539","title":"(539) Juan De La Cierva N.º 29 Líneas: 44","geometry":{"type":"Point","coordinates":[-0.861878444895842,41.67163813823743]},"link":"http://www.urbanosdezaragoza.es/frm_esquemaparadatime.php?poste=539","icon":"http://www.zaragoza.es/contenidos/iconos/bus.png"},{"id":"tuzsa-538","title":"(538) Juan De La Cierva N.º 9 Líneas: 44","geometry":{"type":"Point","coordinates":[-0.8593294855159903,41.6666640398236]},"link":"http://www.urbanosdezaragoza.es/frm_esquemaparadatime.php?poste=538","icon":"http://www.zaragoza.es/contenidos/iconos/bus.png"},{"id":"tuzsa-1278","title":"(1278) Plaza Mozart / Parque De La Esperanza Líneas: 60","geometry":{"type":"Point","coordinates":[-0.8651846103094599,41.66173801334632]},"link":"http://www.urbanosdezaragoza.es/frm_esquemaparadatime.php?poste=1278","icon":"http://www.zaragoza.es/contenidos/iconos/bus.png"},{"id":"tuzsa-537","title":"(537) Av. Juan Carlos I / Jardines De Taifá Líneas: 53","geometry":{"type":"Point","coordinates":[-0.9079390097721501,41.63920605680497]},"link":"http://www.urbanosdezaragoza.es/frm_esquemaparadatime.php?poste=537","icon":"http://www.zaragoza.es/contenidos/iconos/bus.png"},{"id":"tuzsa-534","title":"(534) Av. Puerta De Sancho N.º 3 Líneas: 42","geometry":{"type":"Point","coordinates":[-0.9025021289383288,41.66026524550708]},"link":"http://www.urbanosdezaragoza.es/frm_esquemaparadatime.php?poste=534","icon":"http://www.zaragoza.es/contenidos/iconos/bus.png"},{"id":"tuzsa-532","title":"(532) Jorge Cocci N.º 17 Líneas: 22, 30","geometry":{"type":"Point","coordinates":[-0.869141186506849,41.64661610644223]},"link":"http://www.urbanosdezaragoza.es/frm_esquemaparadatime.php?poste=532","icon":"http://www.zaragoza.es/contenidos/iconos/bus.png"},{"id":"tuzsa-530","title":"(530) Joaquín Sorolla  / Parque De La Memoria Líneas: 40","geometry":{"type":"Point","coordinates":[-0.8786218094069155,41.63329662723341]},"link":"http://www.urbanosdezaragoza.es/frm_esquemaparadatime.php?poste=530","icon":"http://www.zaragoza.es/contenidos/iconos/bus.png"},{"id":"tuzsa-529","title":"(529) Jesús Y María N.º 89 Líneas: 29, 50","geometry":{"type":"Point","coordinates":[-0.8642255651412452,41.69301124115343]},"link":"http://www.urbanosdezaragoza.es/frm_esquemaparadatime.php?poste=529","icon":"http://www.zaragoza.es/contenidos/iconos/bus.png"},{"id":"tuzsa-528","title":"(528) Jesús Y María N.º 61 Líneas: 29, 50","geometry":{"type":"Point","coordinates":[-0.8660765888839804,41.693736002392214]},"link":"http://www.urbanosdezaragoza.es/frm_esquemaparadatime.php?poste=528","icon":"http://www.zaragoza.es/contenidos/iconos/bus.png"},{"id":"tuzsa-527","title":"(527) Jesús Y María N.º 15 Líneas: 29","geometry":{"type":"Point","coordinates":[-0.8686613477157596,41.69465439606655]},"link":"http://www.urbanosdezaragoza.es/frm_esquemaparadatime.php?poste=527","icon":"http://www.zaragoza.es/contenidos/iconos/bus.png"},{"id":"tuzsa-525","title":"(525) Jerónimo Cáncer N.º 24 Líneas: 53, 21","geometry":{"type":"Point","coordinates":[-0.928781131002266,41.65299876092839]},"link":"http://www.urbanosdezaragoza.es/frm_esquemaparadatime.php?poste=525","icon":"http://www.zaragoza.es/contenidos/iconos/bus.png"},{"id":"tuzsa-518","title":"(518) P. Isabel La Católica / Romareda Líneas: 42","geometry":{"type":"Point","coordinates":[-0.9011976215366466,41.635395510846884]},"link":"http://www.urbanosdezaragoza.es/frm_esquemaparadatime.php?poste=518","icon":"http://www.zaragoza.es/contenidos/iconos/bus.png"},{"id":"tuzsa-513","title":"(513) P. Isabel La Católica N.º 18 / Pedro Iv Líneas: 42","geometry":{"type":"Point","coordinates":[-0.9032789735432804,41.63385703714418]},"link":"http://www.urbanosdezaragoza.es/frm_esquemaparadatime.php?poste=513","icon":"http://www.zaragoza.es/contenidos/iconos/bus.png"},{"id":"tuzsa-510","title":"(510) P. Isabel La Católica N.º 3 Líneas: 42","geometry":{"type":"Point","coordinates":[-0.9029723542215153,41.6338350462266]},"link":"http://www.urbanosdezaragoza.es/frm_esquemaparadatime.php?poste=510","icon":"http://www.zaragoza.es/contenidos/iconos/bus.png"},{"id":"tuzsa-509","title":"(509) Iriarte Reinoso N.º 4 Líneas: 42","geometry":{"type":"Point","coordinates":[-0.9026939208937175,41.65546893431524]},"link":"http://www.urbanosdezaragoza.es/frm_esquemaparadatime.php?poste=509","icon":"http://www.zaragoza.es/contenidos/iconos/bus.png"},{"id":"tuzsa-508","title":"(508) Ignacio Zapata / Ruste Líneas: 39, 50","geometry":{"type":"Point","coordinates":[-0.8587716616480412,41.66176071761755]},"link":"http://www.urbanosdezaragoza.es/frm_esquemaparadatime.php?poste=508","icon":"http://www.zaragoza.es/contenidos/iconos/bus.png"},{"id":"tuzsa-505","title":"(505) Hernán Cortés N.º 6 Líneas: 35, 38","geometry":{"type":"Point","coordinates":[-0.8883663072598493,41.64940157639441]},"link":"http://www.urbanosdezaragoza.es/frm_esquemaparadatime.php?poste=505","icon":"http://www.zaragoza.es/contenidos/iconos/bus.png"},{"id":"tuzsa-497","title":"(497) Gran Vía N.º 11 Líneas: ","geometry":{"type":"Point","coordinates":[-0.887343020534553,41.64619095131815]},"link":"http://www.urbanosdezaragoza.es/frm_esquemaparadatime.php?poste=497","icon":"http://www.zaragoza.es/contenidos/iconos/bus.png"},{"id":"tuzsa-493","title":"(493) Valle De Broto / G.Gómez Avellaneda Líneas: 23, 42","geometry":{"type":"Point","coordinates":[-0.8864169411597675,41.664854378463026]},"link":"http://www.urbanosdezaragoza.es/frm_esquemaparadatime.php?poste=493","icon":"http://www.zaragoza.es/contenidos/iconos/bus.png"},{"id":"tuzsa-491","title":"(491) G. Gómez Avellaneda N.º 83 Líneas: 44, 43","geometry":{"type":"Point","coordinates":[-0.8907238779904878,41.676899355072955]},"link":"http://www.urbanosdezaragoza.es/frm_esquemaparadatime.php?poste=491","icon":"http://www.zaragoza.es/contenidos/iconos/bus.png"},{"id":"tuzsa-489","title":"(489) G. Gómez Avellaneda N.º 73 Líneas: 44, 43","geometry":{"type":"Point","coordinates":[-0.8907433674769031,41.675435537741656]},"link":"http://www.urbanosdezaragoza.es/frm_esquemaparadatime.php?poste=489","icon":"http://www.zaragoza.es/contenidos/iconos/bus.png"},{"id":"tuzsa-481","title":"(481) Gascón De Gotor N.º 26 Líneas: Ci1","geometry":{"type":"Point","coordinates":[-0.8892346292474937,41.63852475271584]},"link":"http://www.urbanosdezaragoza.es/frm_esquemaparadatime.php?poste=481","icon":"http://www.zaragoza.es/contenidos/iconos/bus.png"},{"id":"tuzsa-480","title":"(480) Gascón De Gotor N.º 4 Líneas: Ci1","geometry":{"type":"Point","coordinates":[-0.8874020495141258,41.639585518774865]},"link":"http://www.urbanosdezaragoza.es/frm_esquemaparadatime.php?poste=480","icon":"http://www.zaragoza.es/contenidos/iconos/bus.png"},{"id":"tuzsa-479","title":"(479) García Sánchez N.º 26 Líneas: 22, 24","geometry":{"type":"Point","coordinates":[-0.8993993549194609,41.64749481288866]},"link":"http://www.urbanosdezaragoza.es/frm_esquemaparadatime.php?poste=479","icon":"http://www.zaragoza.es/contenidos/iconos/bus.png"},{"id":"tuzsa-478","title":"(478) García Lorca N.º 13 Líneas: 23, 40","geometry":{"type":"Point","coordinates":[-0.8784792825529241,41.634705669689396]},"link":"http://www.urbanosdezaragoza.es/frm_esquemaparadatime.php?poste=478","icon":"http://www.zaragoza.es/contenidos/iconos/bus.png"},{"id":"tuzsa-477","title":"(477) García Arista N.º 16 Líneas: 50","geometry":{"type":"Point","coordinates":[-0.876976105540319,41.65934199066578]},"link":"http://www.urbanosdezaragoza.es/frm_esquemaparadatime.php?poste=477","icon":"http://www.zaragoza.es/contenidos/iconos/bus.png"},{"id":"tuzsa-475","title":"(475) Demetrio Galán Bergua / Colegio Líneas: 33","geometry":{"type":"Point","coordinates":[-0.9139953496265845,41.646936800025564]},"link":"http://www.urbanosdezaragoza.es/frm_esquemaparadatime.php?poste=475","icon":"http://www.zaragoza.es/contenidos/iconos/bus.png"},{"id":"tuzsa-474","title":"(474) GALÁN BERGUA 24 Líneas: 33","geometry":{"type":"Point","coordinates":[-0.9157424560369606,41.648209887255945]},"link":"http://www.urbanosdezaragoza.es/frm_esquemaparadatime.php?poste=474","icon":"http://www.zaragoza.es/contenidos/iconos/bus.png"},{"id":"tuzsa-473","title":"(473) Gabriel Gombao N.º 31 Líneas: 42","geometry":{"type":"Point","coordinates":[-0.8815864307709725,41.62812120120424]},"link":"http://www.urbanosdezaragoza.es/frm_esquemaparadatime.php?poste=473","icon":"http://www.zaragoza.es/contenidos/iconos/bus.png"},{"id":"tuzsa-472","title":"(472) Gabriel Gombao N.º 9 Líneas: C4, 42, 31","geometry":{"type":"Point","coordinates":[-0.8830105350395223,41.62790681071179]},"link":"http://www.urbanosdezaragoza.es/frm_esquemaparadatime.php?poste=472","icon":"http://www.zaragoza.es/contenidos/iconos/bus.png"},{"id":"tuzsa-471","title":"(471) Fueros De Aragón N.º 15 Líneas: 35, 38, 41","geometry":{"type":"Point","coordinates":[-0.8950949551973857,41.64684227431041]},"link":"http://www.urbanosdezaragoza.es/frm_esquemaparadatime.php?poste=471","icon":"http://www.zaragoza.es/contenidos/iconos/bus.png"},{"id":"tuzsa-470","title":"(470) Fray Luis Urbano / Madrina Salinas Líneas: 24","geometry":{"type":"Point","coordinates":[-0.8586925250660722,41.648444395530156]},"link":"http://www.urbanosdezaragoza.es/frm_esquemaparadatime.php?poste=470","icon":"http://www.zaragoza.es/contenidos/iconos/bus.png"},{"id":"tuzsa-468","title":"(468) Fray Julián Garcés N.º 106 Líneas: 34","geometry":{"type":"Point","coordinates":[-0.8889157741561441,41.625426517378976]},"link":"http://www.urbanosdezaragoza.es/frm_esquemaparadatime.php?poste=468","icon":"http://www.zaragoza.es/contenidos/iconos/bus.png"},{"id":"tuzsa-467","title":"(467) Fray Julián Garcés N.º 88 Líneas: 34, 39, C1","geometry":{"type":"Point","coordinates":[-0.8882104433298429,41.627609512485456]},"link":"http://www.urbanosdezaragoza.es/frm_esquemaparadatime.php?poste=467","icon":"http://www.zaragoza.es/contenidos/iconos/bus.png"},{"id":"tuzsa-466","title":"(466) Av. De La Ilustración N.º 37 Líneas: 41, 54","geometry":{"type":"Point","coordinates":[-0.9415062215535318,41.62792953351381]},"link":"http://www.urbanosdezaragoza.es/frm_esquemaparadatime.php?poste=466","icon":"http://www.zaragoza.es/contenidos/iconos/bus.png"},{"id":"tuzsa-463","title":"(463) Franco Y López N.º 57 Líneas: 24","geometry":{"type":"Point","coordinates":[-0.9018936852999333,41.6478433954614]},"link":"http://www.urbanosdezaragoza.es/frm_esquemaparadatime.php?poste=463","icon":"http://www.zaragoza.es/contenidos/iconos/bus.png"},{"id":"tuzsa-462","title":"(462) Av. Peñaflor / Cuartel Guardia Civil Líneas: 28","geometry":{"type":"Point","coordinates":[-0.7969144524610655,41.75871829629508]},"link":"http://www.urbanosdezaragoza.es/frm_esquemaparadatime.php?poste=462","icon":"http://www.zaragoza.es/contenidos/iconos/bus.png"},{"id":"tuzsa-461","title":"(461) María De Aragón / C.S. Torre Ramona Líneas: 44","geometry":{"type":"Point","coordinates":[-0.862720344580799,41.64069364122576]},"link":"http://www.urbanosdezaragoza.es/frm_esquemaparadatime.php?poste=461","icon":"http://www.zaragoza.es/contenidos/iconos/bus.png"},{"id":"tuzsa-451","title":"(451) Felisa Galé N.º 7 Líneas: 44, 39, 50","geometry":{"type":"Point","coordinates":[-0.8609724851152603,41.663242138221186]},"link":"http://www.urbanosdezaragoza.es/frm_esquemaparadatime.php?poste=451","icon":"http://www.zaragoza.es/contenidos/iconos/bus.png"},{"id":"tuzsa-449","title":"(449) FEDERICO OZANAM 33 Líneas: N3, 36, 24","geometry":{"type":"Point","coordinates":[-0.9321654041798074,41.64020261253262]},"link":"http://www.urbanosdezaragoza.es/frm_esquemaparadatime.php?poste=449","icon":"http://www.zaragoza.es/contenidos/iconos/bus.png"},{"id":"tuzsa-448","title":"(448) Faustino Casamayor N.º 20 Líneas: 23","geometry":{"type":"Point","coordinates":[-0.8792670761298268,41.626076788250245]},"link":"http://www.urbanosdezaragoza.es/frm_esquemaparadatime.php?poste=448","icon":"http://www.zaragoza.es/contenidos/iconos/bus.png"},{"id":"tuzsa-446","title":"(446) Escultor Palao Líneas: 33","geometry":{"type":"Point","coordinates":[-0.9173415566681911,41.648194587871195]},"link":"http://www.urbanosdezaragoza.es/frm_esquemaparadatime.php?poste=446","icon":"http://www.zaragoza.es/contenidos/iconos/bus.png"},{"id":"tuzsa-445","title":"(445) Campus Río Ebro Líneas: 44, 43","geometry":{"type":"Point","coordinates":[-0.8894988343207176,41.683884110053015]},"link":"http://www.urbanosdezaragoza.es/frm_esquemaparadatime.php?poste=445","icon":"http://www.zaragoza.es/contenidos/iconos/bus.png"},{"id":"tuzsa-444","title":"(444) San Antonio De Padua / Valladolid Líneas: 42","geometry":{"type":"Point","coordinates":[-0.8753603203239695,41.628915828526125]},"link":"http://www.urbanosdezaragoza.es/frm_esquemaparadatime.php?poste=444","icon":"http://www.zaragoza.es/contenidos/iconos/bus.png"},{"id":"tuzsa-443","title":"(443) Duquesa Villahermosa / Centro Deportivo Municipal Líneas: 38","geometry":{"type":"Point","coordinates":[-0.9065750177816924,41.646676758688535]},"link":"http://www.urbanosdezaragoza.es/frm_esquemaparadatime.php?poste=443","icon":"http://www.zaragoza.es/contenidos/iconos/bus.png"},{"id":"tuzsa-442","title":"(442) Duquesa Villahermosa N.º 109 / Vía Univérsitas Líneas: 22","geometry":{"type":"Point","coordinates":[-0.9064870218030655,41.64692814640918]},"link":"http://www.urbanosdezaragoza.es/frm_esquemaparadatime.php?poste=442","icon":"http://www.zaragoza.es/contenidos/iconos/bus.png"},{"id":"tuzsa-440","title":"(440) Duquesa Villahermosa / Alferez Rojas Líneas: 38","geometry":{"type":"Point","coordinates":[-0.914121666886603,41.64448581709035]},"link":"http://www.urbanosdezaragoza.es/frm_esquemaparadatime.php?poste=440","icon":"http://www.zaragoza.es/contenidos/iconos/bus.png"},{"id":"tuzsa-439","title":"(439) Duquesa Villahermosa N.º 155 Líneas: 38","geometry":{"type":"Point","coordinates":[-0.9136528828428686,41.64436012678966]},"link":"http://www.urbanosdezaragoza.es/frm_esquemaparadatime.php?poste=439","icon":"http://www.zaragoza.es/contenidos/iconos/bus.png"},{"id":"tuzsa-437","title":"(437) Duquesa Villahermosa N.º 97 Líneas: 38","geometry":{"type":"Point","coordinates":[-0.9042339807670796,41.64747760077609]},"link":"http://www.urbanosdezaragoza.es/frm_esquemaparadatime.php?poste=437","icon":"http://www.zaragoza.es/contenidos/iconos/bus.png"},{"id":"tuzsa-436","title":"(436) Duquesa Villahermosa N.º 42 Líneas: 22","geometry":{"type":"Point","coordinates":[-0.9033694014539531,41.647951949685044]},"link":"http://www.urbanosdezaragoza.es/frm_esquemaparadatime.php?poste=436","icon":"http://www.zaragoza.es/contenidos/iconos/bus.png"},{"id":"tuzsa-435","title":"(435) Duquesa Villahermosa N.º 10 Líneas: 22","geometry":{"type":"Point","coordinates":[-0.9010102774808737,41.64878941178908]},"link":"http://www.urbanosdezaragoza.es/frm_esquemaparadatime.php?poste=435","icon":"http://www.zaragoza.es/contenidos/iconos/bus.png"},{"id":"tuzsa-434","title":"(434) Duquesa Villahermosa N.º 3 Líneas: 22","geometry":{"type":"Point","coordinates":[-0.8995436585412584,41.64904323396724]},"link":"http://www.urbanosdezaragoza.es/frm_esquemaparadatime.php?poste=434","icon":"http://www.zaragoza.es/contenidos/iconos/bus.png"},{"id":"tuzsa-433","title":"(433) Don Jaime I / Plaza De La Seo Líneas: 35, 39, 28, 29","geometry":{"type":"Point","coordinates":[-0.8766981642660209,41.65532835193529]},"link":"http://www.urbanosdezaragoza.es/frm_esquemaparadatime.php?poste=433","icon":"http://www.zaragoza.es/contenidos/iconos/bus.png"},{"id":"tuzsa-432","title":"(432) Plaza De Ariño Líneas: 35, 39, 28","geometry":{"type":"Point","coordinates":[-0.8782797425643192,41.65346100987041]},"link":"http://www.urbanosdezaragoza.es/frm_esquemaparadatime.php?poste=432","icon":"http://www.zaragoza.es/contenidos/iconos/bus.png"},{"id":"tuzsa-431","title":"(431) Doctor Iranzo N.º 90 / C.S. Las Fuentes Norte Líneas: 44","geometry":{"type":"Point","coordinates":[-0.8634621641007993,41.650114687156076]},"link":"http://www.urbanosdezaragoza.es/frm_esquemaparadatime.php?poste=431","icon":"http://www.zaragoza.es/contenidos/iconos/bus.png"},{"id":"tuzsa-430","title":"(430) Doctor Iranzo N.º 61 Líneas: 44, 30","geometry":{"type":"Point","coordinates":[-0.863892865952631,41.64783857510032]},"link":"http://www.urbanosdezaragoza.es/frm_esquemaparadatime.php?poste=430","icon":"http://www.zaragoza.es/contenidos/iconos/bus.png"},{"id":"tuzsa-429","title":"(429) Doctor Iranzo N.º 37 Líneas: 44","geometry":{"type":"Point","coordinates":[-0.8644190450567552,41.645175787922796]},"link":"http://www.urbanosdezaragoza.es/frm_esquemaparadatime.php?poste=429","icon":"http://www.zaragoza.es/contenidos/iconos/bus.png"},{"id":"tuzsa-427","title":"(427) Av. Peñaflor N.º 79 Líneas: 28","geometry":{"type":"Point","coordinates":[-0.796060646930806,41.76000817218782]},"link":"http://www.urbanosdezaragoza.es/frm_esquemaparadatime.php?poste=427","icon":"http://www.zaragoza.es/contenidos/iconos/bus.png"},{"id":"tuzsa-426","title":"(426) Cuarta Avenida N.º 62 Líneas: 23, C4","geometry":{"type":"Point","coordinates":[-0.8774870356844658,41.6247167943089]},"link":"http://www.urbanosdezaragoza.es/frm_esquemaparadatime.php?poste=426","icon":"http://www.zaragoza.es/contenidos/iconos/bus.png"},{"id":"tuzsa-425","title":"(425) Cuarta Avenida N.º 21  Líneas: 23, C4, 31","geometry":{"type":"Point","coordinates":[-0.8764498534718574,41.62485820471728]},"link":"http://www.urbanosdezaragoza.es/frm_esquemaparadatime.php?poste=425","icon":"http://www.zaragoza.es/contenidos/iconos/bus.png"},{"id":"tuzsa-424","title":"(424) Ctra. Peñaflor / Campanero Líneas: 28","geometry":{"type":"Point","coordinates":[-0.8046109687659785,41.74508446229165]},"link":"http://www.urbanosdezaragoza.es/frm_esquemaparadatime.php?poste=424","icon":"http://www.zaragoza.es/contenidos/iconos/bus.png"},{"id":"tuzsa-423","title":"(423) Ctra. Peñaflor / Torre Givalta Líneas: 28","geometry":{"type":"Point","coordinates":[-0.8043483103781277,41.74520831795382]},"link":"http://www.urbanosdezaragoza.es/frm_esquemaparadatime.php?poste=423","icon":"http://www.zaragoza.es/contenidos/iconos/bus.png"},{"id":"tuzsa-422","title":"(422) Ctra. Peñaflor / Camino El Regao Líneas: 28","geometry":{"type":"Point","coordinates":[-0.8085719478427241,41.73514398821441]},"link":"http://www.urbanosdezaragoza.es/frm_esquemaparadatime.php?poste=422","icon":"http://www.zaragoza.es/contenidos/iconos/bus.png"},{"id":"tuzsa-421","title":"(421) Av. De Montañana N.º 886 Líneas: 28","geometry":{"type":"Point","coordinates":[-0.8108020452538426,41.71552188762466]},"link":"http://www.urbanosdezaragoza.es/frm_esquemaparadatime.php?poste=421","icon":"http://www.zaragoza.es/contenidos/iconos/bus.png"},{"id":"tuzsa-420","title":"(420) Av. De Montañana N.º 981 Líneas: 28","geometry":{"type":"Point","coordinates":[-0.8109439056235932,41.71585746690428]},"link":"http://www.urbanosdezaragoza.es/frm_esquemaparadatime.php?poste=420","icon":"http://www.zaragoza.es/contenidos/iconos/bus.png"},{"id":"tuzsa-419","title":"(419) Av. Peñaflor N.º 27 Líneas: 28","geometry":{"type":"Point","coordinates":[-0.7978681913980401,41.75669686091914]},"link":"http://www.urbanosdezaragoza.es/frm_esquemaparadatime.php?poste=419","icon":"http://www.zaragoza.es/contenidos/iconos/bus.png"},{"id":"tuzsa-418","title":"(418) Ctra. Peñaflor Fte. Camino El Regao Líneas: 28","geometry":{"type":"Point","coordinates":[-0.8088283043726602,41.73503071970423]},"link":"http://www.urbanosdezaragoza.es/frm_esquemaparadatime.php?poste=418","icon":"http://www.zaragoza.es/contenidos/iconos/bus.png"},{"id":"tuzsa-417","title":"(417) Av. De Montañana N.º 709 Líneas: 28","geometry":{"type":"Point","coordinates":[-0.8152963295372294,41.70001231489616]},"link":"http://www.urbanosdezaragoza.es/frm_esquemaparadatime.php?poste=417","icon":"http://www.zaragoza.es/contenidos/iconos/bus.png"},{"id":"tuzsa-416","title":"(416) Av. De Montañana Fte. N.º 999 Líneas: 28","geometry":{"type":"Point","coordinates":[-0.8100635640545866,41.719694660984885]},"link":"http://www.urbanosdezaragoza.es/frm_esquemaparadatime.php?poste=416","icon":"http://www.zaragoza.es/contenidos/iconos/bus.png"},{"id":"tuzsa-415","title":"(415) Av. De Montañana N.º 967 Líneas: 28","geometry":{"type":"Point","coordinates":[-0.8114079840041577,41.713688405824634]},"link":"http://www.urbanosdezaragoza.es/frm_esquemaparadatime.php?poste=415","icon":"http://www.zaragoza.es/contenidos/iconos/bus.png"},{"id":"tuzsa-414","title":"(414) Av. De Montañana N.º 839 Líneas: 28","geometry":{"type":"Point","coordinates":[-0.8144568165930586,41.705634847786655]},"link":"http://www.urbanosdezaragoza.es/frm_esquemaparadatime.php?poste=414","icon":"http://www.zaragoza.es/contenidos/iconos/bus.png"},{"id":"tuzsa-413","title":"(413) Ctra. Peñaflor / Camino Azud Urdán Líneas: 28","geometry":{"type":"Point","coordinates":[-0.8087644842827595,41.73036837913056]},"link":"http://www.urbanosdezaragoza.es/frm_esquemaparadatime.php?poste=413","icon":"http://www.zaragoza.es/contenidos/iconos/bus.png"},{"id":"tuzsa-412","title":"(412) Av. Peñaflor Fte. N.º 27 Líneas: 28","geometry":{"type":"Point","coordinates":[-0.797643338374032,41.7568037738645]},"link":"http://www.urbanosdezaragoza.es/frm_esquemaparadatime.php?poste=412","icon":"http://www.zaragoza.es/contenidos/iconos/bus.png"},{"id":"tuzsa-411","title":"(411) Ctra. Peñaflor / Camino Perdiguera Líneas: 28","geometry":{"type":"Point","coordinates":[-0.8087981208894757,41.732995169654515]},"link":"http://www.urbanosdezaragoza.es/frm_esquemaparadatime.php?poste=411","icon":"http://www.zaragoza.es/contenidos/iconos/bus.png"},{"id":"tuzsa-410","title":"(410) Ctra. Peñaflor / Cartuja Aula Dei Líneas: 28","geometry":{"type":"Point","coordinates":[-0.8090236167074388,41.73295822532552]},"link":"http://www.urbanosdezaragoza.es/frm_esquemaparadatime.php?poste=410","icon":"http://www.zaragoza.es/contenidos/iconos/bus.png"},{"id":"tuzsa-409","title":"(409) Ctra. Peñaflor / Centro Experimental Aula Dei Líneas: 28","geometry":{"type":"Point","coordinates":[-0.8103598466337587,41.72463406440846]},"link":"http://www.urbanosdezaragoza.es/frm_esquemaparadatime.php?poste=409","icon":"http://www.zaragoza.es/contenidos/iconos/bus.png"},{"id":"tuzsa-408","title":"(408) Ctra. Peñaflor / Cita Líneas: 28","geometry":{"type":"Point","coordinates":[-0.8108501957457914,41.7235026773263]},"link":"http://www.urbanosdezaragoza.es/frm_esquemaparadatime.php?poste=408","icon":"http://www.zaragoza.es/contenidos/iconos/bus.png"},{"id":"tuzsa-407","title":"(407) Av. De Montañana / Cno. B. Las Flores Líneas: 28","geometry":{"type":"Point","coordinates":[-0.8101981181782477,41.71824315728055]},"link":"http://www.urbanosdezaragoza.es/frm_esquemaparadatime.php?poste=407","icon":"http://www.zaragoza.es/contenidos/iconos/bus.png"},{"id":"tuzsa-406","title":"(406) Av. De Montañana / Cno. B. Las Flores Líneas: 28","geometry":{"type":"Point","coordinates":[-0.8100331638308781,41.7182510880791]},"link":"http://www.urbanosdezaragoza.es/frm_esquemaparadatime.php?poste=406","icon":"http://www.zaragoza.es/contenidos/iconos/bus.png"},{"id":"tuzsa-405","title":"(405) Ctra. Peñaflor Fte. C. Protección Animal Líneas: 28","geometry":{"type":"Point","coordinates":[-0.8063890863467201,41.74187304352422]},"link":"http://www.urbanosdezaragoza.es/frm_esquemaparadatime.php?poste=405","icon":"http://www.zaragoza.es/contenidos/iconos/bus.png"},{"id":"tuzsa-404","title":"(404) Ctra. Peñaflor C. Protección Animal Líneas: 28","geometry":{"type":"Point","coordinates":[-0.8059767344567691,41.742409682280844]},"link":"http://www.urbanosdezaragoza.es/frm_esquemaparadatime.php?poste=404","icon":"http://www.zaragoza.es/contenidos/iconos/bus.png"},{"id":"tuzsa-403","title":"(403) Ctra. Peñaflor / Camino Azud De Urzán Líneas: 28","geometry":{"type":"Point","coordinates":[-0.8089573371074008,41.73025164627614]},"link":"http://www.urbanosdezaragoza.es/frm_esquemaparadatime.php?poste=403","icon":"http://www.zaragoza.es/contenidos/iconos/bus.png"},{"id":"tuzsa-402","title":"(402) Av. De Montañana N.º 999 Líneas: 28","geometry":{"type":"Point","coordinates":[-0.8102304809173841,41.71962201214905]},"link":"http://www.urbanosdezaragoza.es/frm_esquemaparadatime.php?poste=402","icon":"http://www.zaragoza.es/contenidos/iconos/bus.png"},{"id":"tuzsa-401","title":"(401) Av. De Montañana N.º 876 Líneas: 28","geometry":{"type":"Point","coordinates":[-0.8111881625868883,41.713818678928774]},"link":"http://www.urbanosdezaragoza.es/frm_esquemaparadatime.php?poste=401","icon":"http://www.zaragoza.es/contenidos/iconos/bus.png"},{"id":"tuzsa-400","title":"(400) Av. De Montañana N.º 935 Líneas: 28","geometry":{"type":"Point","coordinates":[-0.8128244788381154,41.710597682203776]},"link":"http://www.urbanosdezaragoza.es/frm_esquemaparadatime.php?poste=400","icon":"http://www.zaragoza.es/contenidos/iconos/bus.png"},{"id":"tuzsa-399","title":"(399) Av. De Montañana N.º 844 Líneas: 28","geometry":{"type":"Point","coordinates":[-0.8125692165336136,41.71068891579538]},"link":"http://www.urbanosdezaragoza.es/frm_esquemaparadatime.php?poste=399","icon":"http://www.zaragoza.es/contenidos/iconos/bus.png"},{"id":"tuzsa-398","title":"(398) Av. De Montañana N.º 895 Líneas: 28","geometry":{"type":"Point","coordinates":[-0.8140076227228629,41.70760750948342]},"link":"http://www.urbanosdezaragoza.es/frm_esquemaparadatime.php?poste=398","icon":"http://www.zaragoza.es/contenidos/iconos/bus.png"},{"id":"tuzsa-397","title":"(397) Av. De Montañana N.º 826 Líneas: 28","geometry":{"type":"Point","coordinates":[-0.8137665310416351,41.707717208496405]},"link":"http://www.urbanosdezaragoza.es/frm_esquemaparadatime.php?poste=397","icon":"http://www.zaragoza.es/contenidos/iconos/bus.png"},{"id":"tuzsa-396","title":"(396) Av. De Montañana N.º 788 Líneas: 28","geometry":{"type":"Point","coordinates":[-0.8142621200880963,41.705836845602605]},"link":"http://www.urbanosdezaragoza.es/frm_esquemaparadatime.php?poste=396","icon":"http://www.zaragoza.es/contenidos/iconos/bus.png"},{"id":"tuzsa-395","title":"(395) Av. De Montañana N.º 777 Líneas: 28","geometry":{"type":"Point","coordinates":[-0.8151244315865113,41.702687981720665]},"link":"http://www.urbanosdezaragoza.es/frm_esquemaparadatime.php?poste=395","icon":"http://www.zaragoza.es/contenidos/iconos/bus.png"},{"id":"tuzsa-394","title":"(394) Av. De Montañana N.º 720 Líneas: 28","geometry":{"type":"Point","coordinates":[-0.8148357025700669,41.703122355865666]},"link":"http://www.urbanosdezaragoza.es/frm_esquemaparadatime.php?poste=394","icon":"http://www.zaragoza.es/contenidos/iconos/bus.png"},{"id":"tuzsa-393","title":"(393) Av. De Montañana N.º 678 Líneas: 28","geometry":{"type":"Point","coordinates":[-0.8151172808205409,41.70045535195668]},"link":"http://www.urbanosdezaragoza.es/frm_esquemaparadatime.php?poste=393","icon":"http://www.zaragoza.es/contenidos/iconos/bus.png"},{"id":"tuzsa-392","title":"(392) Av. De Montañana / Vivero Líneas: 28","geometry":{"type":"Point","coordinates":[-0.8338189983419432,41.6728273212185]},"link":"http://www.urbanosdezaragoza.es/frm_esquemaparadatime.php?poste=392","icon":"http://www.zaragoza.es/contenidos/iconos/bus.png"},{"id":"tuzsa-391","title":"(391) Av. De Montañana N.º 98 / Báscula Líneas: 28","geometry":{"type":"Point","coordinates":[-0.8296250043938223,41.67727130080032]},"link":"http://www.urbanosdezaragoza.es/frm_esquemaparadatime.php?poste=391","icon":"http://www.zaragoza.es/contenidos/iconos/bus.png"},{"id":"tuzsa-390","title":"(390) Av. De Montañana / Báscula Líneas: 28","geometry":{"type":"Point","coordinates":[-0.8297312098539035,41.676917376063166]},"link":"http://www.urbanosdezaragoza.es/frm_esquemaparadatime.php?poste=390","icon":"http://www.zaragoza.es/contenidos/iconos/bus.png"},{"id":"tuzsa-389","title":"(389) Av. De Montañana / Gasolinera Líneas: 28","geometry":{"type":"Point","coordinates":[-0.833740416027103,41.67267047808863]},"link":"http://www.urbanosdezaragoza.es/frm_esquemaparadatime.php?poste=389","icon":"http://www.zaragoza.es/contenidos/iconos/bus.png"},{"id":"tuzsa-388","title":"(388) Av. De Montañana Fte. N.º 489 Líneas: 28","geometry":{"type":"Point","coordinates":[-0.8227951182687268,41.69262114388859]},"link":"http://www.urbanosdezaragoza.es/frm_esquemaparadatime.php?poste=388","icon":"http://www.zaragoza.es/contenidos/iconos/bus.png"},{"id":"tuzsa-387","title":"(387) Av. De Montañana Fte. N.º 254 Líneas: 28","geometry":{"type":"Point","coordinates":[-0.8289891177425913,41.684495907389014]},"link":"http://www.urbanosdezaragoza.es/frm_esquemaparadatime.php?poste=387","icon":"http://www.zaragoza.es/contenidos/iconos/bus.png"},{"id":"tuzsa-386","title":"(386) Av. De Montañana N.º 500 Líneas: 28","geometry":{"type":"Point","coordinates":[-0.8208628582824944,41.69367992473341]},"link":"http://www.urbanosdezaragoza.es/frm_esquemaparadatime.php?poste=386","icon":"http://www.zaragoza.es/contenidos/iconos/bus.png"},{"id":"tuzsa-385","title":"(385) Av. De Montañana / Fte. Supermercado Líneas: 28","geometry":{"type":"Point","coordinates":[-0.8385245811053029,41.670585785600224]},"link":"http://www.urbanosdezaragoza.es/frm_esquemaparadatime.php?poste=385","icon":"http://www.zaragoza.es/contenidos/iconos/bus.png"},{"id":"tuzsa-384","title":"(384) Av. De Montañana / Supermercado Líneas: 28","geometry":{"type":"Point","coordinates":[-0.8382641449391031,41.67052891502477]},"link":"http://www.urbanosdezaragoza.es/frm_esquemaparadatime.php?poste=384","icon":"http://www.zaragoza.es/contenidos/iconos/bus.png"},{"id":"tuzsa-383","title":"(383) Av. De Montañana N.º 625 Líneas: 28","geometry":{"type":"Point","coordinates":[-0.8174422730503963,41.695765750441616]},"link":"http://www.urbanosdezaragoza.es/frm_esquemaparadatime.php?poste=383","icon":"http://www.zaragoza.es/contenidos/iconos/bus.png"},{"id":"tuzsa-382","title":"(382) Av. De Montañana N.º 587 Líneas: 28","geometry":{"type":"Point","coordinates":[-0.8189438598078218,41.695030460432974]},"link":"http://www.urbanosdezaragoza.es/frm_esquemaparadatime.php?poste=382","icon":"http://www.zaragoza.es/contenidos/iconos/bus.png"},{"id":"tuzsa-365","title":"(365) Bernardo Ramazzini N.º 5 Líneas: 29","geometry":{"type":"Point","coordinates":[-0.8687124795527341,41.68448775311301]},"link":"http://www.urbanosdezaragoza.es/frm_esquemaparadatime.php?poste=365","icon":"http://www.zaragoza.es/contenidos/iconos/bus.png"},{"id":"tuzsa-381","title":"(381) Av. De Montañana N.º 584 Líneas: 28","geometry":{"type":"Point","coordinates":[-0.8171808917110064,41.69573439196776]},"link":"http://www.urbanosdezaragoza.es/frm_esquemaparadatime.php?poste=381","icon":"http://www.zaragoza.es/contenidos/iconos/bus.png"},{"id":"tuzsa-380","title":"(380) Av. De Montañana N.º 574 Líneas: 28","geometry":{"type":"Point","coordinates":[-0.8186844632772317,41.69502219938077]},"link":"http://www.urbanosdezaragoza.es/frm_esquemaparadatime.php?poste=380","icon":"http://www.zaragoza.es/contenidos/iconos/bus.png"},{"id":"tuzsa-379","title":"(379) Av. De Montañana N.º 541 Líneas: 28","geometry":{"type":"Point","coordinates":[-0.8209545738783153,41.69376434411418]},"link":"http://www.urbanosdezaragoza.es/frm_esquemaparadatime.php?poste=379","icon":"http://www.zaragoza.es/contenidos/iconos/bus.png"},{"id":"tuzsa-378","title":"(378) Av. De Montañana N.º 489 Líneas: 28","geometry":{"type":"Point","coordinates":[-0.822754825063873,41.69276826420104]},"link":"http://www.urbanosdezaragoza.es/frm_esquemaparadatime.php?poste=378","icon":"http://www.zaragoza.es/contenidos/iconos/bus.png"},{"id":"tuzsa-377","title":"(377) Av. De Montañana N.º 419 Líneas: 28","geometry":{"type":"Point","coordinates":[-0.8252673831191134,41.69119654542433]},"link":"http://www.urbanosdezaragoza.es/frm_esquemaparadatime.php?poste=377","icon":"http://www.zaragoza.es/contenidos/iconos/bus.png"},{"id":"tuzsa-376","title":"(376) Av. De Montañana N.º 382 Líneas: 28","geometry":{"type":"Point","coordinates":[-0.8251555826748151,41.69113399467171]},"link":"http://www.urbanosdezaragoza.es/frm_esquemaparadatime.php?poste=376","icon":"http://www.zaragoza.es/contenidos/iconos/bus.png"},{"id":"tuzsa-375","title":"(375) Av. De Montañana N.º 381 Líneas: 28","geometry":{"type":"Point","coordinates":[-0.8265489654173201,41.68991687452453]},"link":"http://www.urbanosdezaragoza.es/frm_esquemaparadatime.php?poste=375","icon":"http://www.zaragoza.es/contenidos/iconos/bus.png"},{"id":"tuzsa-374","title":"(374) Av. De Montañana N.º 354 Líneas: 28","geometry":{"type":"Point","coordinates":[-0.8264869567825572,41.68981014583586]},"link":"http://www.urbanosdezaragoza.es/frm_esquemaparadatime.php?poste=374","icon":"http://www.zaragoza.es/contenidos/iconos/bus.png"},{"id":"tuzsa-373","title":"(373) Av. De Montañana N.º 341 Líneas: 28","geometry":{"type":"Point","coordinates":[-0.8278013408347646,41.68866806844859]},"link":"http://www.urbanosdezaragoza.es/frm_esquemaparadatime.php?poste=373","icon":"http://www.zaragoza.es/contenidos/iconos/bus.png"},{"id":"tuzsa-372","title":"(372) Av. De Montañana N.º 332 Líneas: 28","geometry":{"type":"Point","coordinates":[-0.8273904510449926,41.688909679352165]},"link":"http://www.urbanosdezaragoza.es/frm_esquemaparadatime.php?poste=372","icon":"http://www.zaragoza.es/contenidos/iconos/bus.png"},{"id":"tuzsa-371","title":"(371) Av. De Montañana N.º 288 Líneas: 28","geometry":{"type":"Point","coordinates":[-0.8286456941185159,41.686842778821706]},"link":"http://www.urbanosdezaragoza.es/frm_esquemaparadatime.php?poste=371","icon":"http://www.zaragoza.es/contenidos/iconos/bus.png"},{"id":"tuzsa-370","title":"(370) Av. De Montañana N.º 283 Líneas: 28","geometry":{"type":"Point","coordinates":[-0.8288344843835568,41.68644187315588]},"link":"http://www.urbanosdezaragoza.es/frm_esquemaparadatime.php?poste=370","icon":"http://www.zaragoza.es/contenidos/iconos/bus.png"},{"id":"tuzsa-369","title":"(369) Av. De Montañana N.º 254 Líneas: 28","geometry":{"type":"Point","coordinates":[-0.8288162143022223,41.68474625707024]},"link":"http://www.urbanosdezaragoza.es/frm_esquemaparadatime.php?poste=369","icon":"http://www.zaragoza.es/contenidos/iconos/bus.png"},{"id":"tuzsa-368","title":"(368) Av. De Montañana N.º 182 Líneas: 28","geometry":{"type":"Point","coordinates":[-0.8291756968109523,41.68118580762328]},"link":"http://www.urbanosdezaragoza.es/frm_esquemaparadatime.php?poste=368","icon":"http://www.zaragoza.es/contenidos/iconos/bus.png"},{"id":"tuzsa-367","title":"(367) Av. De Montañana N.º 159 Líneas: 28","geometry":{"type":"Point","coordinates":[-0.8295341098224696,41.6805810509382]},"link":"http://www.urbanosdezaragoza.es/frm_esquemaparadatime.php?poste=367","icon":"http://www.zaragoza.es/contenidos/iconos/bus.png"},{"id":"tuzsa-366","title":"(366) Autovía De Huesca / Pasarela Líneas: 29","geometry":{"type":"Point","coordinates":[-0.8699864093572073,41.692827634673094]},"link":"http://www.urbanosdezaragoza.es/frm_esquemaparadatime.php?poste=366","icon":"http://www.zaragoza.es/contenidos/iconos/bus.png"},{"id":"tuzsa-363","title":"(363) Av. M.Rodriguez Ayuso / Anillo Verde Líneas: 24, 36","geometry":{"type":"Point","coordinates":[-0.9232167152657889,41.6465077069888]},"link":"http://www.urbanosdezaragoza.es/frm_esquemaparadatime.php?poste=363","icon":"http://www.zaragoza.es/contenidos/iconos/bus.png"},{"id":"tuzsa-362","title":"(362) Av. M.Rodriguez Ayuso N.º 44 Líneas: 24, 36","geometry":{"type":"Point","coordinates":[-0.9214231521025007,41.64841102208097]},"link":"http://www.urbanosdezaragoza.es/frm_esquemaparadatime.php?poste=362","icon":"http://www.zaragoza.es/contenidos/iconos/bus.png"},{"id":"tuzsa-361","title":"(361) Av. M.Rodriguez Ayuso N.º 11 Líneas: 24, 36","geometry":{"type":"Point","coordinates":[-0.9228007462587334,41.6465010841879]},"link":"http://www.urbanosdezaragoza.es/frm_esquemaparadatime.php?poste=361","icon":"http://www.zaragoza.es/contenidos/iconos/bus.png"},{"id":"tuzsa-360","title":"(360) CTRA MADRID 3 Líneas: 24, 36","geometry":{"type":"Point","coordinates":[-0.9200567612110244,41.64894099120952]},"link":"http://www.urbanosdezaragoza.es/frm_esquemaparadatime.php?poste=360","icon":"http://www.zaragoza.es/contenidos/iconos/bus.png"},{"id":"tuzsa-357","title":"(357) Ctra. Castellón / Pol. Ind. San Valero Líneas: 25","geometry":{"type":"Point","coordinates":[-0.8439241639119837,41.6181083425205]},"link":"http://www.urbanosdezaragoza.es/frm_esquemaparadatime.php?poste=357","icon":"http://www.zaragoza.es/contenidos/iconos/bus.png"},{"id":"tuzsa-356","title":"(356) Ctra. Castellón / Pol. Ind. San Valero Líneas: 25","geometry":{"type":"Point","coordinates":[-0.8425568523386029,41.61856234563641]},"link":"http://www.urbanosdezaragoza.es/frm_esquemaparadatime.php?poste=356","icon":"http://www.zaragoza.es/contenidos/iconos/bus.png"},{"id":"tuzsa-355","title":"(355) Estación Delicias / Acceso Salidas Líneas: 34, 51, Ci2","geometry":{"type":"Point","coordinates":[-0.9084943445508336,41.658028548245916]},"link":"http://www.urbanosdezaragoza.es/frm_esquemaparadatime.php?poste=355","icon":"http://www.zaragoza.es/contenidos/iconos/bus.png"},{"id":"tuzsa-354","title":"(354) Carretera Castellón / Gasolinera Líneas: 25","geometry":{"type":"Point","coordinates":[-0.8462927825961879,41.623132743432706]},"link":"http://www.urbanosdezaragoza.es/frm_esquemaparadatime.php?poste=354","icon":"http://www.zaragoza.es/contenidos/iconos/bus.png"},{"id":"tuzsa-353","title":"(353) Ctra. Castellón Fte. Cementerio Líneas: 25","geometry":{"type":"Point","coordinates":[-0.8529784956068492,41.62810414947466]},"link":"http://www.urbanosdezaragoza.es/frm_esquemaparadatime.php?poste=353","icon":"http://www.zaragoza.es/contenidos/iconos/bus.png"},{"id":"tuzsa-352","title":"(352) José Ramírez N.º 82 Líneas: 25","geometry":{"type":"Point","coordinates":[-0.8269692795043825,41.60494288908143]},"link":"http://www.urbanosdezaragoza.es/frm_esquemaparadatime.php?poste=352","icon":"http://www.zaragoza.es/contenidos/iconos/bus.png"},{"id":"tuzsa-350","title":"(350) Ctra. Castellón P.K. 231 Líneas: 25","geometry":{"type":"Point","coordinates":[-0.8348232560441174,41.61117818644038]},"link":"http://www.urbanosdezaragoza.es/frm_esquemaparadatime.php?poste=350","icon":"http://www.zaragoza.es/contenidos/iconos/bus.png"},{"id":"tuzsa-349","title":"(349) Ctra. Castellón / Cementerio Líneas: 25","geometry":{"type":"Point","coordinates":[-0.8527247780418556,41.628229188627515]},"link":"http://www.urbanosdezaragoza.es/frm_esquemaparadatime.php?poste=349","icon":"http://www.zaragoza.es/contenidos/iconos/bus.png"},{"id":"tuzsa-348","title":"(348) Martín Díez De Aux N.º 4 Líneas: 41","geometry":{"type":"Point","coordinates":[-0.9437206351876186,41.62816689669315]},"link":"http://www.urbanosdezaragoza.es/frm_esquemaparadatime.php?poste=348","icon":"http://www.zaragoza.es/contenidos/iconos/bus.png"},{"id":"tuzsa-347","title":"(347) Cristo Rey N.º 77 Líneas: 29, 50","geometry":{"type":"Point","coordinates":[-0.8637325543509655,41.69096824498382]},"link":"http://www.urbanosdezaragoza.es/frm_esquemaparadatime.php?poste=347","icon":"http://www.zaragoza.es/contenidos/iconos/bus.png"},{"id":"tuzsa-346","title":"(346) Cristo Rey N.º 23 Líneas: 29, 50","geometry":{"type":"Point","coordinates":[-0.8659672278328739,41.6929555472267]},"link":"http://www.urbanosdezaragoza.es/frm_esquemaparadatime.php?poste=346","icon":"http://www.zaragoza.es/contenidos/iconos/bus.png"},{"id":"tuzsa-340","title":"(340) Coso N.º 188 Líneas: 22, 35, 39, 28, 29, 21, 32","geometry":{"type":"Point","coordinates":[-0.8722026789181709,41.65273215186422]},"link":"http://www.urbanosdezaragoza.es/frm_esquemaparadatime.php?poste=340","icon":"http://www.zaragoza.es/contenidos/iconos/bus.png"},{"id":"rural-338","title":"(338) Esquina calle Atiliana Líneas: 501","geometry":{"type":"Point","coordinates":[-0.9949808978762993,41.65157432469261]},"icon":"http://www.zaragoza.es/contenidos/iconos/bus.png"},{"id":"tuzsa-338","title":"(338) Coso N.º 126 Líneas: 22, 35, 28, 21, 32","geometry":{"type":"Point","coordinates":[-0.875490310391522,41.650876726538016]},"link":"http://www.urbanosdezaragoza.es/frm_esquemaparadatime.php?poste=338","icon":"http://www.zaragoza.es/contenidos/iconos/bus.png"},{"id":"rural-337","title":"(337) Esquina calle Atiliana Líneas: 501","geometry":{"type":"Point","coordinates":[-0.9947666711423622,41.65170568287888]},"icon":"http://www.zaragoza.es/contenidos/iconos/bus.png"},{"id":"tuzsa-336","title":"(336) Coso N.º 66 Líneas: 39, 28, 29","geometry":{"type":"Point","coordinates":[-0.8791851916844168,41.65149001317179]},"link":"http://www.urbanosdezaragoza.es/frm_esquemaparadatime.php?poste=336","icon":"http://www.zaragoza.es/contenidos/iconos/bus.png"},{"id":"tuzsa-335","title":"(335) Coso N.º 62 Líneas: 38, 39","geometry":{"type":"Point","coordinates":[-0.8795595225159959,41.65163184338926]},"link":"http://www.urbanosdezaragoza.es/frm_esquemaparadatime.php?poste=335","icon":"http://www.zaragoza.es/contenidos/iconos/bus.png"},{"id":"tuzsa-334","title":"(334) Coso N.º 55 / Teatro Principal Líneas: 38, 21","geometry":{"type":"Point","coordinates":[-0.8795676498179378,41.65183788106568]},"link":"http://www.urbanosdezaragoza.es/frm_esquemaparadatime.php?poste=334","icon":"http://www.zaragoza.es/contenidos/iconos/bus.png"},{"id":"tuzsa-333","title":"(333) Coso N.º 54 / Banco De España Líneas: 21","geometry":{"type":"Point","coordinates":[-0.8801058439006835,41.651857005373]},"link":"http://www.urbanosdezaragoza.es/frm_esquemaparadatime.php?poste=333","icon":"http://www.zaragoza.es/contenidos/iconos/bus.png"},{"id":"rural-330","title":"(330) Avenida de Navarra 3 Líneas: 604, 601, 501, 602, 603","geometry":{"type":"Point","coordinates":[-0.9016740797206355,41.65466367646251]},"icon":"http://www.zaragoza.es/contenidos/iconos/bus.png"},{"id":"rural-329","title":"(329) Estación Delicias (Vestíbulo de salidas AVE) Líneas: 501","geometry":{"type":"Point","coordinates":[-0.9085639957710984,41.65828830246174]},"icon":"http://www.zaragoza.es/contenidos/iconos/bus.png"},{"id":"tuzsa-329","title":"(329) Corona De Aragón N.º 51 Líneas: 24","geometry":{"type":"Point","coordinates":[-0.8994039992044035,41.64472234380467]},"link":"http://www.urbanosdezaragoza.es/frm_esquemaparadatime.php?poste=329","icon":"http://www.zaragoza.es/contenidos/iconos/bus.png"},{"id":"rural-328","title":"(328) Los Enlaces Líneas: 501","geometry":{"type":"Point","coordinates":[-0.9193147082653722,41.65194472119989]},"icon":"http://www.zaragoza.es/contenidos/iconos/bus.png"},{"id":"tuzsa-328","title":"(328) Corona De Aragón N.º 33 Líneas: 24","geometry":{"type":"Point","coordinates":[-0.8967605511904517,41.643322532139926]},"link":"http://www.urbanosdezaragoza.es/frm_esquemaparadatime.php?poste=328","icon":"http://www.zaragoza.es/contenidos/iconos/bus.png"},{"id":"rural-327","title":"(327) C.C. Alcampo Los Enlaces Líneas: 501","geometry":{"type":"Point","coordinates":[-0.9356283970170822,41.644367290866334]},"icon":"http://www.zaragoza.es/contenidos/iconos/bus.png"},{"id":"tuzsa-327","title":"(327) Condes De Aragón / Vía Hispanidad Líneas: 35, 42","geometry":{"type":"Point","coordinates":[-0.908710666349567,41.6345266461118]},"link":"http://www.urbanosdezaragoza.es/frm_esquemaparadatime.php?poste=327","icon":"http://www.zaragoza.es/contenidos/iconos/bus.png"},{"id":"rural-326","title":"(326) C.C. Plaza Imperial Líneas: 501","geometry":{"type":"Point","coordinates":[-0.9869248624458076,41.63395619791715]},"icon":"http://www.zaragoza.es/contenidos/iconos/bus.png"},{"id":"tuzsa-326","title":"(326) Condes De Aragón / Av. Juan Pablo Ii Líneas: 35, 42","geometry":{"type":"Point","coordinates":[-0.9071593201757395,41.63677783975957]},"link":"http://www.urbanosdezaragoza.es/frm_esquemaparadatime.php?poste=326","icon":"http://www.zaragoza.es/contenidos/iconos/bus.png"},{"id":"rural-325","title":"(325) Alquiler de vehículos Hispania Líneas: 501","geometry":{"type":"Point","coordinates":[-0.9905080439326134,41.63572568319155]},"icon":"http://www.zaragoza.es/contenidos/iconos/bus.png"},{"id":"tuzsa-325","title":"(325) Condes De Aragón N.º 16 Líneas: 35, 42, 53","geometry":{"type":"Point","coordinates":[-0.9058010879972198,41.63877566577014]},"link":"http://www.urbanosdezaragoza.es/frm_esquemaparadatime.php?poste=325","icon":"http://www.zaragoza.es/contenidos/iconos/bus.png"},{"id":"rural-324","title":"(324) Imaginarium Líneas: 501","geometry":{"type":"Point","coordinates":[-0.9901084955610672,41.64269427106399]},"icon":"http://www.zaragoza.es/contenidos/iconos/bus.png"},{"id":"tuzsa-324","title":"(324) Conde De Aranda N.º 122 / Plaza Del Portillo Líneas: 33, 34, 52, 32","geometry":{"type":"Point","coordinates":[-0.8917057282376823,41.65591463116862]},"link":"http://www.urbanosdezaragoza.es/frm_esquemaparadatime.php?poste=324","icon":"http://www.zaragoza.es/contenidos/iconos/bus.png"},{"id":"rural-323","title":"(323) CISAE Líneas: 501","geometry":{"type":"Point","coordinates":[-0.9842956328870709,41.64198905784]},"icon":"http://www.zaragoza.es/contenidos/iconos/bus.png"},{"id":"rural-322","title":"(322) Lapuente Logística Líneas: 501","geometry":{"type":"Point","coordinates":[-0.9818952161068015,41.64376622931581]},"icon":"http://www.zaragoza.es/contenidos/iconos/bus.png"},{"id":"rural-321","title":"(321) Turiaso Líneas: 501","geometry":{"type":"Point","coordinates":[-0.9789282228312831,41.645456825438636]},"icon":"http://www.zaragoza.es/contenidos/iconos/bus.png"},{"id":"tuzsa-321","title":"(321) Conde De Aranda N.º 62 Líneas: 33, 34, 52, 32","geometry":{"type":"Point","coordinates":[-0.8883929229814278,41.65522915636248]},"link":"http://www.urbanosdezaragoza.es/frm_esquemaparadatime.php?poste=321","icon":"http://www.zaragoza.es/contenidos/iconos/bus.png"},{"id":"rural-320","title":"(320) Edificio TIC XXI Líneas: 501","geometry":{"type":"Point","coordinates":[-0.9727165242547977,41.64621207159461]},"icon":"http://www.zaragoza.es/contenidos/iconos/bus.png"},{"id":"tuzsa-320","title":"(320) Conde De Aranda N.º 41 Líneas: 33, 34, 52, 32","geometry":{"type":"Point","coordinates":[-0.8882124146454861,41.65505318276458]},"link":"http://www.urbanosdezaragoza.es/frm_esquemaparadatime.php?poste=320","icon":"http://www.zaragoza.es/contenidos/iconos/bus.png"},{"id":"rural-319","title":"(319) Hotel Rey Fernando (esquina calle Osca) Líneas: 501","geometry":{"type":"Point","coordinates":[-0.9824820161886159,41.651125873980696]},"icon":"http://www.zaragoza.es/contenidos/iconos/bus.png"},{"id":"rural-318","title":"(318) Barclays (esquina calle Atiliana) Líneas: 501","geometry":{"type":"Point","coordinates":[-0.9907402057864548,41.6543733921911]},"icon":"http://www.zaragoza.es/contenidos/iconos/bus.png"},{"id":"rural-317","title":"(317) Caladero (esquina calle Bari) Líneas: 501","geometry":{"type":"Point","coordinates":[-0.9990799103262537,41.65319043104266]},"icon":"http://www.zaragoza.es/contenidos/iconos/bus.png"},{"id":"tuzsa-317","title":"(317) Conde De Aranda N.º 3  / Colegio Líneas: 33, 52, 32","geometry":{"type":"Point","coordinates":[-0.8848584352482903,41.65420833533]},"link":"http://www.urbanosdezaragoza.es/frm_esquemaparadatime.php?poste=317","icon":"http://www.zaragoza.es/contenidos/iconos/bus.png"},{"id":"rural-316","title":"(316) Aeropuerto de Zaragoza Líneas: 501","geometry":{"type":"Point","coordinates":[-1.0070214102015134,41.663195179799935]},"icon":"http://www.zaragoza.es/contenidos/iconos/bus.png"},{"id":"rural-315","title":"(315) Real Aeroclub de Zaragoza Líneas: 501","geometry":{"type":"Point","coordinates":[-1.0064967599855328,41.664316394615575]},"icon":"http://www.zaragoza.es/contenidos/iconos/bus.png"},{"id":"tuzsa-315","title":"(315) Conde De Aranda N.º 2  / Colegio Líneas: 33, 34, 52, 32","geometry":{"type":"Point","coordinates":[-0.885217503684344,41.65443939019689]},"link":"http://www.urbanosdezaragoza.es/frm_esquemaparadatime.php?poste=315","icon":"http://www.zaragoza.es/contenidos/iconos/bus.png"},{"id":"rural-314","title":"(314) Caladero (esquina calle Bari) Líneas: 501","geometry":{"type":"Point","coordinates":[-0.9988294971652553,41.65330765655047]},"icon":"http://www.zaragoza.es/contenidos/iconos/bus.png"},{"id":"tuzsa-314","title":"(314) Av. Compromiso De Caspe N.º 72 Líneas: 22","geometry":{"type":"Point","coordinates":[-0.8617448536902883,41.64515934402045]},"link":"http://www.urbanosdezaragoza.es/frm_esquemaparadatime.php?poste=314","icon":"http://www.zaragoza.es/contenidos/iconos/bus.png"},{"id":"rural-313","title":"(313) Barclays (esquina calle Atiliana) Líneas: 501","geometry":{"type":"Point","coordinates":[-0.9906777331664564,41.65446686789449]},"icon":"http://www.zaragoza.es/contenidos/iconos/bus.png"},{"id":"tuzsa-313","title":"(313) Av. Compromiso De Caspe N.º 48 Líneas: 22, 24, 30","geometry":{"type":"Point","coordinates":[-0.8649496735100425,41.6454474733629]},"link":"http://www.urbanosdezaragoza.es/frm_esquemaparadatime.php?poste=313","icon":"http://www.zaragoza.es/contenidos/iconos/bus.png"},{"id":"rural-312","title":"(312) Hotel Rey Fernando (esquina calle Osca) Líneas: 501","geometry":{"type":"Point","coordinates":[-0.9822905594144379,41.65118105317998]},"icon":"http://www.zaragoza.es/contenidos/iconos/bus.png"},{"id":"tuzsa-312","title":"(312) Av. Compromiso De Caspe N.º 27 Líneas: 24","geometry":{"type":"Point","coordinates":[-0.8694488005103943,41.646092325074754]},"link":"http://www.urbanosdezaragoza.es/frm_esquemaparadatime.php?poste=312","icon":"http://www.zaragoza.es/contenidos/iconos/bus.png"},{"id":"rural-311","title":"(311) Edificio TIC XXI Líneas: 501","geometry":{"type":"Point","coordinates":[-0.9726292009864248,41.64612496820523]},"icon":"http://www.zaragoza.es/contenidos/iconos/bus.png"},{"id":"rural-310","title":"(310) Grupo Usieto Líneas: 501","geometry":{"type":"Point","coordinates":[-0.9792060128509635,41.645389660873526]},"icon":"http://www.zaragoza.es/contenidos/iconos/bus.png"},{"id":"rural-309","title":"(309) Lapuente Logística Líneas: 501","geometry":{"type":"Point","coordinates":[-0.9818242690672211,41.64363889111954]},"icon":"http://www.zaragoza.es/contenidos/iconos/bus.png"},{"id":"tuzsa-309","title":"(309) Celso Emilio Ferreiro N.º 12 Líneas: 32","geometry":{"type":"Point","coordinates":[-0.9154146426911259,41.65358341888888]},"link":"http://www.urbanosdezaragoza.es/frm_esquemaparadatime.php?poste=309","icon":"http://www.zaragoza.es/contenidos/iconos/bus.png"},{"id":"rural-308","title":"(308) CISAE Líneas: 501","geometry":{"type":"Point","coordinates":[-0.9844576215950991,41.64191534484452]},"icon":"http://www.zaragoza.es/contenidos/iconos/bus.png"},{"id":"tuzsa-308","title":"(308) Comín Ros N.º 3 Líneas: 32","geometry":{"type":"Point","coordinates":[-0.9130250345591493,41.65505787620688]},"link":"http://www.urbanosdezaragoza.es/frm_esquemaparadatime.php?poste=308","icon":"http://www.zaragoza.es/contenidos/iconos/bus.png"},{"id":"rural-307","title":"(307) Imaginarium Líneas: 501","geometry":{"type":"Point","coordinates":[-0.9899825917785732,41.64258849249318]},"icon":"http://www.zaragoza.es/contenidos/iconos/bus.png"},{"id":"rural-306","title":"(306) Alquiler de vehículos Hispania Líneas: 501","geometry":{"type":"Point","coordinates":[-0.9900985573136387,41.63584461054102]},"icon":"http://www.zaragoza.es/contenidos/iconos/bus.png"},{"id":"rural-305","title":"(305) C.C. Plaza Imperial Líneas: 501","geometry":{"type":"Point","coordinates":[-0.9866992477570826,41.63393423054034]},"icon":"http://www.zaragoza.es/contenidos/iconos/bus.png"},{"id":"tuzsa-305","title":"(305) Ismael Hipólito Lor Vicente  Líneas: 52","geometry":{"type":"Point","coordinates":[-0.9276211573900117,41.65801570039314]},"link":"http://www.urbanosdezaragoza.es/frm_esquemaparadatime.php?poste=305","icon":"http://www.zaragoza.es/contenidos/iconos/bus.png"},{"id":"rural-304","title":"(304) C.C. Alcampo Los Enlaces Líneas: 501","geometry":{"type":"Point","coordinates":[-0.9356814966041869,41.64458440154617]},"icon":"http://www.zaragoza.es/contenidos/iconos/bus.png"},{"id":"tuzsa-304","title":"(304) Camino Del Pilón / Anillo Verde Líneas: 52","geometry":{"type":"Point","coordinates":[-0.9255974057635875,41.65872228395894]},"link":"http://www.urbanosdezaragoza.es/frm_esquemaparadatime.php?poste=304","icon":"http://www.zaragoza.es/contenidos/iconos/bus.png"},{"id":"rural-303","title":"(303) Los Enlaces Líneas: 501","geometry":{"type":"Point","coordinates":[-0.9194970119843165,41.65194802424793]},"icon":"http://www.zaragoza.es/contenidos/iconos/bus.png"},{"id":"rural-302","title":"(302) Estación Delicias (Vestíbulo de llegadas AVE) Líneas: 501","geometry":{"type":"Point","coordinates":[-0.9138221947466463,41.65922596628215]},"icon":"http://www.zaragoza.es/contenidos/iconos/bus.png"},{"id":"rural-301","title":"(301) Avenida de Navarra 12 Líneas: 602, 604, 603, 501, 601","geometry":{"type":"Point","coordinates":[-0.9019782159438485,41.65485386670561]},"icon":"http://www.zaragoza.es/contenidos/iconos/bus.png"},{"id":"tuzsa-301","title":"(301) Camino Del Pilón / Ibón De Plan Líneas: 52, 53","geometry":{"type":"Point","coordinates":[-0.9369743108712084,41.658865549406464]},"link":"http://www.urbanosdezaragoza.es/frm_esquemaparadatime.php?poste=301","icon":"http://www.zaragoza.es/contenidos/iconos/bus.png"},{"id":"tuzsa-300","title":"(300) Camino Del Pilón / Iglesia Líneas: 52, 53","geometry":{"type":"Point","coordinates":[-0.9421577190688671,41.65865233621143]},"link":"http://www.urbanosdezaragoza.es/frm_esquemaparadatime.php?poste=300","icon":"http://www.zaragoza.es/contenidos/iconos/bus.png"},{"id":"tuzsa-299","title":"(299) Camino Del Pilón N.º 131 Líneas: 52, 53","geometry":{"type":"Point","coordinates":[-0.9404290169484141,41.65862242439926]},"link":"http://www.urbanosdezaragoza.es/frm_esquemaparadatime.php?poste=299","icon":"http://www.zaragoza.es/contenidos/iconos/bus.png"},{"id":"rural-299","title":"(299) Avenida de Movera Líneas: 201","geometry":{"type":"Point","coordinates":[-0.8077396301538449,41.64351143773157]},"icon":"http://www.zaragoza.es/contenidos/iconos/bus.png"},{"id":"tuzsa-298","title":"(298) Camino Del Pilón N.º 122 Líneas: 52, 53","geometry":{"type":"Point","coordinates":[-0.9411383869322396,41.65874079144072]},"link":"http://www.urbanosdezaragoza.es/frm_esquemaparadatime.php?poste=298","icon":"http://www.zaragoza.es/contenidos/iconos/bus.png"},{"id":"rural-298","title":"(298) Avenida de Movera Líneas: 201","geometry":{"type":"Point","coordinates":[-0.8081092245021055,41.643532003705936]},"icon":"http://www.zaragoza.es/contenidos/iconos/bus.png"},{"id":"tuzsa-297","title":"(297) Camino Del Pilón N.º 86 / Ibón De Plan Líneas: 52, 53","geometry":{"type":"Point","coordinates":[-0.9372894056467631,41.65896469727088]},"link":"http://www.urbanosdezaragoza.es/frm_esquemaparadatime.php?poste=297","icon":"http://www.zaragoza.es/contenidos/iconos/bus.png"},{"id":"tuzsa-296","title":"(296) Camino Del Pilón N.º 57 Líneas: 52","geometry":{"type":"Point","coordinates":[-0.9310568159204743,41.658516719416404]},"link":"http://www.urbanosdezaragoza.es/frm_esquemaparadatime.php?poste=296","icon":"http://www.zaragoza.es/contenidos/iconos/bus.png"},{"id":"tuzsa-295","title":"(295) CAMINO DEL PILÓN 39 Líneas: 52","geometry":{"type":"Point","coordinates":[-0.9286591233185989,41.65839117493702]},"link":"http://www.urbanosdezaragoza.es/frm_esquemaparadatime.php?poste=295","icon":"http://www.zaragoza.es/contenidos/iconos/bus.png"},{"id":"tuzsa-294","title":"(294) Camino De Las Torres / Plaza Schweitzer Líneas: Ci1","geometry":{"type":"Point","coordinates":[-0.8819457783794777,41.642656453068454]},"link":"http://www.urbanosdezaragoza.es/frm_esquemaparadatime.php?poste=294","icon":"http://www.zaragoza.es/contenidos/iconos/bus.png"},{"id":"tuzsa-293","title":"(293) Camino De Las Torres N.º 116 Líneas: 24, Ci1","geometry":{"type":"Point","coordinates":[-0.8858347043046262,41.64018163128009]},"link":"http://www.urbanosdezaragoza.es/frm_esquemaparadatime.php?poste=293","icon":"http://www.zaragoza.es/contenidos/iconos/bus.png"},{"id":"tuzsa-291","title":"(291) Camino De Las Torres N.º 105 Líneas: 24","geometry":{"type":"Point","coordinates":[-0.8854623115244243,41.64015459974002]},"link":"http://www.urbanosdezaragoza.es/frm_esquemaparadatime.php?poste=291","icon":"http://www.zaragoza.es/contenidos/iconos/bus.png"},{"id":"tuzsa-290","title":"(290) Camino De Las Torres N.º 79 Líneas: Ci2","geometry":{"type":"Point","coordinates":[-0.8833364042701132,41.64130392561968]},"link":"http://www.urbanosdezaragoza.es/frm_esquemaparadatime.php?poste=290","icon":"http://www.zaragoza.es/contenidos/iconos/bus.png"},{"id":"tuzsa-289","title":"(289) Camino De Las Torres N.º 49 Líneas: Ci2","geometry":{"type":"Point","coordinates":[-0.8811979560648708,41.64290663600961]},"link":"http://www.urbanosdezaragoza.es/frm_esquemaparadatime.php?poste=289","icon":"http://www.zaragoza.es/contenidos/iconos/bus.png"},{"id":"tuzsa-288","title":"(288) Camino De Las Torres N.º 40 Líneas: Ci1","geometry":{"type":"Point","coordinates":[-0.8787189583448868,41.644386200928665]},"link":"http://www.urbanosdezaragoza.es/frm_esquemaparadatime.php?poste=288","icon":"http://www.zaragoza.es/contenidos/iconos/bus.png"},{"id":"tuzsa-287","title":"(287) Camino De Las Torres N.º 35 Líneas: Ci2","geometry":{"type":"Point","coordinates":[-0.8786941028198788,41.64422164393772]},"link":"http://www.urbanosdezaragoza.es/frm_esquemaparadatime.php?poste=287","icon":"http://www.zaragoza.es/contenidos/iconos/bus.png"},{"id":"tuzsa-285","title":"(285) Camino De Las Torres N.º 17 Líneas: Ci2","geometry":{"type":"Point","coordinates":[-0.875288917017308,41.6457837209278]},"link":"http://www.urbanosdezaragoza.es/frm_esquemaparadatime.php?poste=285","icon":"http://www.zaragoza.es/contenidos/iconos/bus.png"},{"id":"tuzsa-284","title":"(284) Camino De Las Torres N.º 10 Líneas: 29, Ci1","geometry":{"type":"Point","coordinates":[-0.87395129140538,41.64664501707774]},"link":"http://www.urbanosdezaragoza.es/frm_esquemaparadatime.php?poste=284","icon":"http://www.zaragoza.es/contenidos/iconos/bus.png"},{"id":"tuzsa-283","title":"(283) Av. De La Ilustración N.º 40 Líneas: 41","geometry":{"type":"Point","coordinates":[-0.941254023121431,41.62918835911096]},"link":"http://www.urbanosdezaragoza.es/frm_esquemaparadatime.php?poste=283","icon":"http://www.zaragoza.es/contenidos/iconos/bus.png"},{"id":"tuzsa-282","title":"(282) Celso Emilio Ferreiro / Celanova Líneas: 32","geometry":{"type":"Point","coordinates":[-0.911205156875784,41.65421159238287]},"link":"http://www.urbanosdezaragoza.es/frm_esquemaparadatime.php?poste=282","icon":"http://www.zaragoza.es/contenidos/iconos/bus.png"},{"id":"tuzsa-281","title":"(281) Celso Emilio Ferreiro N.º 15 Líneas: 32","geometry":{"type":"Point","coordinates":[-0.915527633107934,41.65317819699312]},"link":"http://www.urbanosdezaragoza.es/frm_esquemaparadatime.php?poste=281","icon":"http://www.zaragoza.es/contenidos/iconos/bus.png"},{"id":"tuzsa-280","title":"(280) Celso Emilio Ferreiro N.º 6 Líneas: 32","geometry":{"type":"Point","coordinates":[-0.9135522362462318,41.654143301968865]},"link":"http://www.urbanosdezaragoza.es/frm_esquemaparadatime.php?poste=280","icon":"http://www.zaragoza.es/contenidos/iconos/bus.png"},{"id":"tuzsa-279","title":"(279) Cejador Frauca N.º 10 Líneas: Ci2","geometry":{"type":"Point","coordinates":[-0.8910527219997941,41.63521648275496]},"link":"http://www.urbanosdezaragoza.es/frm_esquemaparadatime.php?poste=279","icon":"http://www.zaragoza.es/contenidos/iconos/bus.png"},{"id":"tuzsa-278","title":"(278) Catorce De Septiembre N.º 29 Líneas: 25","geometry":{"type":"Point","coordinates":[-0.8240907726149943,41.604668443493814]},"link":"http://www.urbanosdezaragoza.es/frm_esquemaparadatime.php?poste=278","icon":"http://www.zaragoza.es/contenidos/iconos/bus.png"},{"id":"tuzsa-277","title":"(277) Carmen N.º 19 Líneas: 35, 38","geometry":{"type":"Point","coordinates":[-0.8929459240396338,41.64668127153885]},"link":"http://www.urbanosdezaragoza.es/frm_esquemaparadatime.php?poste=277","icon":"http://www.zaragoza.es/contenidos/iconos/bus.png"},{"id":"tuzsa-275","title":"(275) Terrazas De Cuéllar N.º 4 Líneas: 23","geometry":{"type":"Point","coordinates":[-0.8794679998329415,41.63221481693315]},"link":"http://www.urbanosdezaragoza.es/frm_esquemaparadatime.php?poste=275","icon":"http://www.zaragoza.es/contenidos/iconos/bus.png"},{"id":"tuzsa-274","title":"(274) C.S. Las Fuentes Norte Líneas: 44","geometry":{"type":"Point","coordinates":[-0.8642805210911891,41.649366435174954]},"link":"http://www.urbanosdezaragoza.es/frm_esquemaparadatime.php?poste=274","icon":"http://www.zaragoza.es/contenidos/iconos/bus.png"},{"id":"tuzsa-273","title":"(273) C.M.E. Grande Covián Líneas: 50","geometry":{"type":"Point","coordinates":[-0.8585212743562839,41.66453759240105]},"link":"http://www.urbanosdezaragoza.es/frm_esquemaparadatime.php?poste=273","icon":"http://www.zaragoza.es/contenidos/iconos/bus.png"},{"id":"tuzsa-271","title":"(271) Biarritz N.º 14 Líneas: 22","geometry":{"type":"Point","coordinates":[-0.9202537151121267,41.65560557390587]},"link":"http://www.urbanosdezaragoza.es/frm_esquemaparadatime.php?poste=271","icon":"http://www.zaragoza.es/contenidos/iconos/bus.png"},{"id":"tuzsa-270","title":"(270) Betore Bergua N.º 1 Líneas: 39","geometry":{"type":"Point","coordinates":[-0.8559628103197772,41.65501382054374]},"link":"http://www.urbanosdezaragoza.es/frm_esquemaparadatime.php?poste=270","icon":"http://www.zaragoza.es/contenidos/iconos/bus.png"},{"id":"rural-270","title":"(270) Avenida de Movera Líneas: 201","geometry":{"type":"Point","coordinates":[-0.8370589883945976,41.664043398258784]},"icon":"http://www.zaragoza.es/contenidos/iconos/bus.png"},{"id":"tuzsa-269","title":"(269) Balbino Orensanz / Velilla De Ebro Líneas: 39, 50","geometry":{"type":"Point","coordinates":[-0.8590789041467772,41.659159085561434]},"link":"http://www.urbanosdezaragoza.es/frm_esquemaparadatime.php?poste=269","icon":"http://www.zaragoza.es/contenidos/iconos/bus.png"},{"id":"tuzsa-268","title":"(268) Balbino Orensanz / Parque De Oriente Líneas: 39, 50","geometry":{"type":"Point","coordinates":[-0.8586883609326517,41.65677878771404]},"link":"http://www.urbanosdezaragoza.es/frm_esquemaparadatime.php?poste=268","icon":"http://www.zaragoza.es/contenidos/iconos/bus.png"},{"id":"tuzsa-267","title":"(267) Balbino Orensanz N.º 29 Líneas: 39, 50","geometry":{"type":"Point","coordinates":[-0.8588342812390494,41.65756831106577]},"link":"http://www.urbanosdezaragoza.es/frm_esquemaparadatime.php?poste=267","icon":"http://www.zaragoza.es/contenidos/iconos/bus.png"},{"id":"tuzsa-266","title":"(266) Balbino Orensanz N.º 7 Líneas: 39, 50","geometry":{"type":"Point","coordinates":[-0.8589277684739717,41.65946131516888]},"link":"http://www.urbanosdezaragoza.es/frm_esquemaparadatime.php?poste=266","icon":"http://www.zaragoza.es/contenidos/iconos/bus.png"},{"id":"tuzsa-265","title":"(265) Av. De Valencia N.º 63 Líneas: 35, 38","geometry":{"type":"Point","coordinates":[-0.8991458968294983,41.64534483298783]},"link":"http://www.urbanosdezaragoza.es/frm_esquemaparadatime.php?poste=265","icon":"http://www.zaragoza.es/contenidos/iconos/bus.png"},{"id":"tuzsa-264","title":"(264) Av. De Valencia N.º 41 Líneas: 35, 38, 41","geometry":{"type":"Point","coordinates":[-0.8971069116499149,41.64615348743703]},"link":"http://www.urbanosdezaragoza.es/frm_esquemaparadatime.php?poste=264","icon":"http://www.zaragoza.es/contenidos/iconos/bus.png"},{"id":"tuzsa-263","title":"(263) Av. De Valencia N.º 38 Líneas: 35, 38, 41","geometry":{"type":"Point","coordinates":[-0.8971807913317656,41.646300024841665]},"link":"http://www.urbanosdezaragoza.es/frm_esquemaparadatime.php?poste=263","icon":"http://www.zaragoza.es/contenidos/iconos/bus.png"},{"id":"tuzsa-262","title":"(262) AV VALENCIA 8 Líneas: N6, 35, N4, 38, 41","geometry":{"type":"Point","coordinates":[-0.8944624253794963,41.647353502999074]},"link":"http://www.urbanosdezaragoza.es/frm_esquemaparadatime.php?poste=262","icon":"http://www.zaragoza.es/contenidos/iconos/bus.png"},{"id":"tuzsa-260","title":"(260) Av. Valdefierro N.º 43 Líneas: 24, 36","geometry":{"type":"Point","coordinates":[-0.9289871283445833,41.6405680149116]},"link":"http://www.urbanosdezaragoza.es/frm_esquemaparadatime.php?poste=260","icon":"http://www.zaragoza.es/contenidos/iconos/bus.png"},{"id":"tuzsa-259","title":"(259) Dalia N.º 2 Líneas: 24, 36","geometry":{"type":"Point","coordinates":[-0.9266092771271577,41.64354958181093]},"link":"http://www.urbanosdezaragoza.es/frm_esquemaparadatime.php?poste=259","icon":"http://www.zaragoza.es/contenidos/iconos/bus.png"},{"id":"tuzsa-258","title":"(258) Av. Valdefierro N.º 1 Líneas: 24, 36","geometry":{"type":"Point","coordinates":[-0.9265202099226099,41.644521666394276]},"link":"http://www.urbanosdezaragoza.es/frm_esquemaparadatime.php?poste=258","icon":"http://www.zaragoza.es/contenidos/iconos/bus.png"},{"id":"tuzsa-257","title":"(257) Av. Tenor Fleta N.º 124 Líneas: 24","geometry":{"type":"Point","coordinates":[-0.8752806279824108,41.636523117592304]},"link":"http://www.urbanosdezaragoza.es/frm_esquemaparadatime.php?poste=257","icon":"http://www.zaragoza.es/contenidos/iconos/bus.png"},{"id":"tuzsa-255","title":"(255) Av. Tenor Fleta N.º 82 Líneas: 23, 24","geometry":{"type":"Point","coordinates":[-0.8777941608850144,41.63783852142664]},"link":"http://www.urbanosdezaragoza.es/frm_esquemaparadatime.php?poste=255","icon":"http://www.zaragoza.es/contenidos/iconos/bus.png"},{"id":"tuzsa-254","title":"(254) Av. Tenor Fleta N.º 62 Líneas: 23, 24","geometry":{"type":"Point","coordinates":[-0.8794078118510654,41.63867468273623]},"link":"http://www.urbanosdezaragoza.es/frm_esquemaparadatime.php?poste=254","icon":"http://www.zaragoza.es/contenidos/iconos/bus.png"},{"id":"tuzsa-253","title":"(253) Av. Tenor Fleta N.º 57 Líneas: 23, 24","geometry":{"type":"Point","coordinates":[-0.8797461845814147,41.63907595514273]},"link":"http://www.urbanosdezaragoza.es/frm_esquemaparadatime.php?poste=253","icon":"http://www.zaragoza.es/contenidos/iconos/bus.png"},{"id":"tuzsa-252","title":"(252) Av. Tenor Fleta N.º 34 Líneas: 23, 24","geometry":{"type":"Point","coordinates":[-0.8825103356371666,41.64028582439103]},"link":"http://www.urbanosdezaragoza.es/frm_esquemaparadatime.php?poste=252","icon":"http://www.zaragoza.es/contenidos/iconos/bus.png"},{"id":"tuzsa-250","title":"(250) Av. Tenor Fleta N.º 3 Líneas: 23","geometry":{"type":"Point","coordinates":[-0.8856202042558248,41.64206615938221]},"link":"http://www.urbanosdezaragoza.es/frm_esquemaparadatime.php?poste=250","icon":"http://www.zaragoza.es/contenidos/iconos/bus.png"},{"id":"tuzsa-249","title":"(249) Av. Tenor Fleta N.º 2 Líneas: 23","geometry":{"type":"Point","coordinates":[-0.8854172283841287,41.64174152098456]},"link":"http://www.urbanosdezaragoza.es/frm_esquemaparadatime.php?poste=249","icon":"http://www.zaragoza.es/contenidos/iconos/bus.png"},{"id":"tuzsa-248","title":"(248) Av. Santa Isabel N.º 141 Líneas: 60, 32","geometry":{"type":"Point","coordinates":[-0.8287849060542547,41.666951377480636]},"link":"http://www.urbanosdezaragoza.es/frm_esquemaparadatime.php?poste=248","icon":"http://www.zaragoza.es/contenidos/iconos/bus.png"},{"id":"tuzsa-247","title":"(247) Av. Santa Isabel N.º 124 Líneas: 60, 32","geometry":{"type":"Point","coordinates":[-0.8290647666568117,41.66682283470949]},"link":"http://www.urbanosdezaragoza.es/frm_esquemaparadatime.php?poste=247","icon":"http://www.zaragoza.es/contenidos/iconos/bus.png"},{"id":"tuzsa-244","title":"(244) Av. Santa Isabel N.º 59 Líneas: 60, 32","geometry":{"type":"Point","coordinates":[-0.835109927458989,41.667524024467895]},"link":"http://www.urbanosdezaragoza.es/frm_esquemaparadatime.php?poste=244","icon":"http://www.zaragoza.es/contenidos/iconos/bus.png"},{"id":"tuzsa-243","title":"(243) Av. Santa Isabel N.º 52 Líneas: 60, 32","geometry":{"type":"Point","coordinates":[-0.83429267992704,41.66732334900463]},"link":"http://www.urbanosdezaragoza.es/frm_esquemaparadatime.php?poste=243","icon":"http://www.zaragoza.es/contenidos/iconos/bus.png"},{"id":"tuzsa-239","title":"(239) Av. San Juan Bosco / Hospital Clínico Líneas: 22, 35, 41","geometry":{"type":"Point","coordinates":[-0.9038144625122262,41.64367560241365]},"link":"http://www.urbanosdezaragoza.es/frm_esquemaparadatime.php?poste=239","icon":"http://www.zaragoza.es/contenidos/iconos/bus.png"},{"id":"tuzsa-238","title":"(238) Av. San Juan Bosco N.º 66 / Hospital Clínico Líneas: 35, 38, 41","geometry":{"type":"Point","coordinates":[-0.9049215320896618,41.64355638675401]},"link":"http://www.urbanosdezaragoza.es/frm_esquemaparadatime.php?poste=238","icon":"http://www.zaragoza.es/contenidos/iconos/bus.png"},{"id":"tuzsa-237","title":"(237) Av. San Juan Bosco N.º 10 Líneas: 35, 38","geometry":{"type":"Point","coordinates":[-0.9004466735001707,41.64499674741343]},"link":"http://www.urbanosdezaragoza.es/frm_esquemaparadatime.php?poste=237","icon":"http://www.zaragoza.es/contenidos/iconos/bus.png"},{"id":"tuzsa-236","title":"(236) Av. San Juan Bosco N.º 7 Líneas: 22, 35, 38","geometry":{"type":"Point","coordinates":[-0.9010061440528008,41.64457745685632]},"link":"http://www.urbanosdezaragoza.es/frm_esquemaparadatime.php?poste=236","icon":"http://www.zaragoza.es/contenidos/iconos/bus.png"},{"id":"tuzsa-234","title":"(234) Av. De San José N.º 224 Líneas: 23","geometry":{"type":"Point","coordinates":[-0.8815502226690421,41.63405796884843]},"link":"http://www.urbanosdezaragoza.es/frm_esquemaparadatime.php?poste=234","icon":"http://www.zaragoza.es/contenidos/iconos/bus.png"},{"id":"tuzsa-233","title":"(233) Av. De San José N.º 209 Líneas: 39","geometry":{"type":"Point","coordinates":[-0.8814609262897762,41.63397670411511]},"link":"http://www.urbanosdezaragoza.es/frm_esquemaparadatime.php?poste=233","icon":"http://www.zaragoza.es/contenidos/iconos/bus.png"},{"id":"tuzsa-232","title":"(232) Av. De San José N.º 200 Líneas: 23, 39, 40","geometry":{"type":"Point","coordinates":[-0.8794350019322569,41.63564684741031]},"link":"http://www.urbanosdezaragoza.es/frm_esquemaparadatime.php?poste=232","icon":"http://www.zaragoza.es/contenidos/iconos/bus.png"},{"id":"tuzsa-230","title":"(230) Av. De San José N.º 159 Líneas: 23, 39, 40","geometry":{"type":"Point","coordinates":[-0.8780864491763402,41.63652375393967]},"link":"http://www.urbanosdezaragoza.es/frm_esquemaparadatime.php?poste=230","icon":"http://www.zaragoza.es/contenidos/iconos/bus.png"},{"id":"tuzsa-228","title":"(228) Av. De San José N.º 124 Líneas: 39, 40","geometry":{"type":"Point","coordinates":[-0.8760199898474034,41.63833349731459]},"link":"http://www.urbanosdezaragoza.es/frm_esquemaparadatime.php?poste=228","icon":"http://www.zaragoza.es/contenidos/iconos/bus.png"},{"id":"tuzsa-227","title":"(227) Av. De San José N.º 97 Líneas: 39, 40","geometry":{"type":"Point","coordinates":[-0.8742354206387414,41.63958542699621]},"link":"http://www.urbanosdezaragoza.es/frm_esquemaparadatime.php?poste=227","icon":"http://www.zaragoza.es/contenidos/iconos/bus.png"},{"id":"tuzsa-226","title":"(226) Av. De San José N.º 70 Líneas: 24, 39, 40","geometry":{"type":"Point","coordinates":[-0.8745949743379207,41.63946229956426]},"link":"http://www.urbanosdezaragoza.es/frm_esquemaparadatime.php?poste=226","icon":"http://www.zaragoza.es/contenidos/iconos/bus.png"},